$SDVHW,100.1,T,122.7,M,0.0,N,0.0,K*44
$WIMWV,77.8,T,5.2,N,A*1A
$GPGGA,170303,2255.1160,S,04310.1607,W,1,12,0.60,5,M,-5.6,M,,*7B
$GPGLC,9960,,,,,,,,,,,,*75
$GPGSV,3,1,12,01,27,347,41,03,79,097,42,04,10,006,40,06,12,230,31*7D
$GPGSV,3,2,12,07,35,305,36,09,33,229,34,11,13,352,34,16,38,093,42*7F
$GPGSV,3,3,12,23,50,177,44,26,22,123,35,30,06,314,28,66,52,107,39*7F
$GPRMC,170303,A,2255.1160,S,04310.1607,W,0.6,99.0,300715,22.6,W,A*00
$GPRMB,,,,,,,,,,,,,,N*04
$WIMWD,180.2,T,202.7,M,5.4,N,2.8,M*5D
$WIMWV,79.8,R,5.5,N,A*15
$IIXDR,C,,C,AIRTEMP,A,-1.6,D,HEEL,A,2.5,D,TRIM,P,,B,BARO,A,,D,RUDDER*2A
$GPGLL,2255.1160,S,04310.1609,W,170304,A,A*47
$GPGSA,A,3,01,03,04,06,07,09,11,16,23,26,30,66,1.20,0.60,1.00*09
$GPVTG,279.0,T,301.6,M,0.7,N,1.3,K,A*2E
$GPZDA,170304,30,07,2015,03,00*48
$GPAAM,,,,N,*38
$GPAPB,,,,,,,,,,,,,,,N*26
$GPBOD,,T,,M,,*47
$GPXTE,,,,,N,N*5E
$SDDBT,12.7,f,3.8,M,2.1,F*3A
$GPGGA,,,,,,0,00,,,M,,M,,*66
$GPGLC,,,,,,,,,,,,,*73
$GPGLL,,,,,,V,N*64
$GPGSA,A,1,,,,,,,,,,,,,,,*1E
$GPVTG,,T,,M,,N,,K,N*2C
$GPZDA,,01,01,-4713,03,00*67
$GPAAM,,,,N,*38
$GPAPB,,,,,,,,,,,,,,,N*26
$GPBOD,,T,,M,,*47
$GPRMB,,,,,,,,,,,,,,N*04
$GPXTE,,,,,N,N*5E
$SDDBT,,,,,,*45
$SDDPT,,,*7B
$SDMTW,,C*1A
$SDVLW,,N,,N,452.7,N,0.0,N*5E
$SDVHW,,T,,M,,N,,K*42
$SDHDG,,,,,*70
$WIMWD,,T,,M,,N,,M*5A
$WIMWV,,R,,N,V*34
$WIMWV,,T,,N,V*32
$IIXDR,C,,C,AIRTEMP,A,,D,HEEL,A,,D,TRIM,P,,B,BARO,A,,D,RUDDER*07
$GPRMC,,A,2255.1909,S,04310.2425,W,0.5,119.0,01014294967283,5.5,W,A*06
$GPGGA,194824,2255.1907,S,04310.2429,W,1,05,2.90,5,M,-5.6,M,,*70
$GPGLC,9960,,,,,,,,,,,,*75
$GPGLL,2255.1907,S,04310.2429,W,194824,A,A*4E
$GPGSA,A,3,03,07,09,23,30,,,,,,,,5.60,2.90,4.80*09
$GPGSV,3,1,12,03,09,019,36,07,50,183,46,09,63,113,42,23,33,072,37*7C
$GPGSV,3,2,12,30,45,237,46,05,10,223,,08,18,107,,10,53,265,*7B
$GPGSV,3,3,12,19,19,093,,27,09,123,,28,37,331,,67,45,018,*7A
$GPVTG,119.0,T,141.6,M,0.2,N,0.4,K,A*2E
$GPZDA,194824,30,07,2015,03,00*4B
$GPAAM,,,,N,*38
$GPAPB,,,,,,,,,,,,,,,N*26
$GPBOD,,T,,M,,*47
$GPRMB,,,,,,,,,,,,,,N*04
$GPXTE,,,,,N,N*5E
$SDDBT,,,,,,*45
$SDDPT,,,*7B
$SDMTW,,C*1A
$SDVLW,,N,,N,452.7,N,0.0,N*5E
$SDVHW,,T,,M,,N,,K*42
$WIMWD,,T,,M,,N,,M*5A
$WIMWV,,R,,N,V*34
$WIMWV,,T,,N,V*32
$SDHDG,,,,,*70
$IIXDR,C,,C,AIRTEMP,A,-1.4,D,HEEL,A,2.8,D,TRIM,P,,B,BARO,A,,D,RUDDER*25
$GPRMC,194825,A,2255.1911,S,04310.2430,W,0.1,129.0,300715,22.6,W,A*33
$GPGGA,194826,2255.1909,S,04310.2435,W,1,05,2.90,4,M,-5.6,M,,*70
$GPGLC,9960,,,,,,,,,,,,*75
$GPGLL,2255.1909,S,04310.2435,W,194826,A,A*4F
$GPGSA,A,3,03,07,09,23,30,,,,,,,,5.60,2.90,4.80*09
$GPGSV,3,1,12,03,09,019,36,07,50,183,46,09,63,113,42,23,33,072,37*7C
$GPGSV,3,2,12,30,45,237,46,05,10,223,,08,18,107,,10,53,265,*7B
$GPGSV,3,3,12,19,19,093,,27,09,123,,28,37,331,,67,45,018,*7A
$GPVTG,128.0,T,150.6,M,0.4,N,0.7,K,A*29
$GPZDA,194826,30,07,2015,03,00*49
$GPAAM,,,,N,*38
$GPAPB,,,,,,,,,,,,,,,N*26
$GPBOD,,T,,M,,*47
$GPRMB,,,,,,,,,,,,,,N*04
$GPXTE,,,,,N,N*5E
$SDDBT,,,,,,*45
$SDDPT,,,*7B
$SDMTW,,C*1A
$SDVLW,,N,,N,452.7,N,0.0,N*5E
$SDVHW,,T,,M,,N,,K*42
$WIMWD,,T,,M,,N,,M*5A
$WIMWV,,R,,N,V*34
$WIMWV,,T,,N,V*32
$IIXDR,C,,C,AIRTEMP,A,0.0,D,HEEL,A,3.2,D,TRIM,P,,B,BARO,A,,D,RUDDER*06
$SDHDG,,,,,*70
$GPRMC,194827,A,2255.1902,S,04310.2434,W,0.5,128.0,300715,22.6,W,A*32
$GPGGA,194828,2255.1902,S,04310.2435,W,1,05,2.90,8,M,-5.6,M,,*79
$GPGLC,9960,,,,,,,,,,,,*75
$GPGLL,2255.1902,S,04310.2435,W,194828,A,A*4A
$GPGSA,A,3,03,07,09,23,30,,,,,,,,5.60,2.90,4.80*09
$GPGSV,3,1,12,03,09,019,33,07,50,183,46,09,63,113,42,23,33,072,37*79
$GPGSV,3,2,12,30,45,237,46,05,10,223,,08,18,107,,10,53,265,*7B
$GPGSV,3,3,12,19,19,093,,27,09,123,,28,37,331,,67,45,018,*7A
$GPVTG,132.0,T,154.6,M,0.3,N,0.5,K,A*23
$GPZDA,194828,30,07,2015,03,00*47
$GPAAM,,,,N,*38
$GPAPB,,,,,,,,,,,,,,,N*26
$GPBOD,,T,,M,,*47
$GPRMB,,,,,,,,,,,,,,N*04
$GPXTE,,,,,N,N*5E
$SDDBT,,,,,,*45
$SDDPT,,,*7B
$SDMTW,,C*1A
$SDVLW,,N,,N,452.7,N,0.0,N*5E
$SDVHW,,T,,M,,N,,K*42
$WIMWD,,T,,M,,N,,M*5A
$WIMWV,,R,,N,V*34
$WIMWV,,T,,N,V*32
$IIXDR,C,,C,AIRTEMP,A,0.8,D,HEEL,A,3.4,D,TRIM,P,,B,BARO,A,,D,RUDDER*08
$SDHDG,,,,,*70
$GPRMC,194829,A,2255.1903,S,04310.2435,W,0.3,132.0,300715,22.6,W,A*31
$GPGGA,194830,2255.1903,S,04310.2435,W,1,05,2.90,9,M,-5.6,M,,*70
$GPGLC,9960,,,,,,,,,,,,*75
$GPGLL,2255.1903,S,04310.2435,W,194830,A,A*42
$GPGSA,A,3,03,07,09,23,30,,,,,,,,5.60,2.90,4.80*09
$GPGSV,3,1,12,03,09,019,31,07,50,183,45,09,63,113,40,23,33,072,36*7B
$GPGSV,3,2,12,30,45,237,47,05,10,223,,08,18,107,,10,53,265,*7A
$GPGSV,3,3,12,19,19,093,,27,09,123,,28,37,331,,67,45,018,*7A
$GPVTG,141.0,T,163.6,M,0.0,N,0.0,K,A*25
$GPAAM,,,,N,*38
$GPAPB,,,,,,,,,,,,,,,N*26
$GPBOD,,T,,M,,*47
$GPRMB,,,,,,,,,,,,,,N*04
$GPXTE,,,,,N,N*5E
$SDDBT,,,,,,*45
$SDDPT,,,*7B
$SDMTW,,C*1A
$SDVLW,,N,,N,452.7,N,0.0,N*5E
$SDVHW,,T,,M,,N,,K*42
$WIMWD,,T,,M,,N,,M*5A
$WIMWV,,R,,N,V*34
$WIMWV,,T,,N,V*32
$IIXDR,C,,C,AIRTEMP,A,-2.5,D,HEEL,A,4.0,D,TRIM,P,,B,BARO,A,,D,RUDDER*29
$SDHDG,,,,,*70
$GPRMC,194831,A,2255.1902,S,04310.2434,W,0.4,136.0,300715,22.6,W,A*3B
$GPZDA,194831,30,07,2015,03,00*4F
$GPGGA,194832,2255.1899,S,04310.2433,W,1,05,2.90,10,M,-5.6,M,,*4E
$GPGLC,9960,,,,,,,,,,,,*75
$GPGLL,2255.1899,S,04310.2433,W,194832,A,A*44
$GPGSA,A,3,03,07,09,23,30,,,,,,,,5.60,2.90,4.80*09
$GPGSV,3,1,12,03,09,019,36,07,50,182,46,09,63,113,40,23,33,072,35*7D
$GPGSV,3,2,12,30,45,236,46,05,10,223,,08,18,107,,10,53,265,*7A
$GPGSV,3,3,12,19,19,093,,27,09,123,,28,37,331,,67,45,018,*7A
$GPVTG,151.0,T,173.6,M,0.1,N,0.2,K,A*26
$GPAAM,,,,N,*38
$GPAPB,,,,,,,,,,,,,,,N*26
$GPBOD,,T,,M,,*47
$GPRMB,,,,,,,,,,,,,,N*04
$GPXTE,,,,,N,N*5E
$SDDBT,,,,,,*45
$SDDPT,,,*7B
$SDMTW,,C*1A
$SDVLW,,N,,N,452.7,N,0.0,N*5E
$WIMWD,,T,,M,,N,,M*5A
$WIMWV,,R,,N,V*34
$WIMWV,,T,,N,V*32
$IIXDR,C,,C,AIRTEMP,A,-2.5,D,HEEL,A,3.9,D,TRIM,P,,B,BARO,A,,D,RUDDER*27
$SDHDG,,,,,*70
$GPRMC,194833,A,2255.1901,S,04310.2434,W,0.2,148.0,300715,22.6,W,A*35
$GPZDA,194833,30,07,2015,03,00*4D
$SDVHW,,T,,M,,N,,K*42
$GPGGA,194834,2255.1902,S,04310.2440,W,1,05,2.90,11,M,-5.6,M,,*4E
$GPGLC,9960,,,,,,,,,,,,*75
$GPGLL,2255.1902,S,04310.2440,W,194834,A,A*45
$GPGSA,A,3,03,07,09,23,30,,,,,,,,5.60,2.90,4.80*09
$GPGSV,3,1,12,03,09,019,35,07,50,182,46,09,63,113,40,23,33,072,36*7D
$GPGSV,3,2,12,30,45,236,46,05,10,223,,08,18,107,,10,53,265,*7A
$GPGSV,3,3,12,19,19,093,,27,09,123,,28,37,331,,67,45,018,*7A
$GPVTG,167.0,T,189.6,M,0.1,N,0.2,K,A*26
$GPAPB,,,,,,,,,,,,,,,N*26
$GPBOD,,T,,M,,*47
$GPRMB,,,,,,,,,,,,,,N*04
$GPXTE,,,,,N,N*5E
$SDDBT,,,,,,*45
$SDDPT,,,*7B
$SDMTW,,C*1A
$SDVLW,,N,,N,452.7,N,0.0,N*5E
$WIMWD,,T,,M,,N,,M*5A
$WIMWV,,R,,N,V*34
$WIMWV,,T,,N,V*32
$IIXDR,C,,C,AIRTEMP,A,-1.8,D,HEEL,A,2.1,D,TRIM,P,,B,BARO,A,,D,RUDDER*20
$SDHDG,,,,,*70
$GPRMC,194835,A,2255.1903,S,04310.2446,W,0.3,183.0,300715,22.6,W,A*32
$GPZDA,194835,30,07,2015,03,00*4B
$GPAAM,,,,N,*38
$SDVHW,,T,,M,,N,,K*42
$GPGGA,194836,2255.1906,S,04310.2449,W,1,05,2.90,11,M,-5.6,M,,*41
$GPGLC,9960,,,,,,,,,,,,*75
$GPGLL,2255.1906,S,04310.2449,W,194836,A,A*4A
$GPGSA,A,3,03,07,09,23,30,,,,,,,,5.60,2.90,4.80*09
$GPGSV,3,1,12,03,09,019,34,07,50,182,46,09,63,113,42,23,33,072,38*70
$GPGSV,3,2,12,30,45,236,46,05,10,223,,08,18,107,,10,53,265,*7A
$GPGSV,3,3,12,19,19,093,,27,09,123,,28,37,331,,67,45,018,*7A
$GPVTG,183.0,T,205.6,M,0.1,N,0.2,K,A*2B
$GPAPB,,,,,,,,,,,,,,,N*26
$GPBOD,,T,,M,,*47
$GPRMB,,,,,,,,,,,,,,N*04
$GPXTE,,,,,N,N*5E
$SDDBT,,,,,,*45
$SDDPT,,,*7B
$SDMTW,,C*1A
$SDVLW,,N,,N,452.7,N,0.0,N*5E
$WIMWD,,T,,M,,N,,M*5A
$WIMWV,,R,,N,V*34
$WIMWV,,T,,N,V*32
$IIXDR,C,,C,AIRTEMP,A,1.8,D,HEEL,A,3.8,D,TRIM,P,,B,BARO,A,,D,RUDDER*05
$SDHDG,,,,,*70
$GPZDA,194837,30,07,2015,03,00*49
$GPAAM,,,,N,*38
$SDVHW,,T,,M,,N,,K*42
$GPGGA,194838,2255.1905,S,04310.2450,W,1,05,2.90,11,M,-5.6,M,,*44
$GPGLC,9960,,,,,,,,,,,,*75
$GPGLL,2255.1905,S,04310.2450,W,194838,A,A*4F
$GPGSA,A,3,03,07,09,23,30,,,,,,,,5.60,2.90,4.80*09
$GPGSV,3,1,12,03,09,019,33,07,50,182,46,09,63,113,41,23,33,072,36*7A
$GPGSV,3,2,12,30,45,236,46,05,10,223,,08,18,107,,10,53,265,*7A
$GPGSV,3,3,12,19,19,093,,27,09,123,,28,37,331,,67,45,018,*7A
$GPRMC,194838,A,2255.1905,S,04310.2450,W,0.2,176.0,300715,22.6,W,A*35
$GPVTG,176.0,T,198.6,M,0.2,N,0.4,K,A*23
$GPAPB,,,,,,,,,,,,,,,N*26
$GPBOD,,T,,M,,*47
$GPRMB,,,,,,,,,,,,,,N*04
$GPXTE,,,,,N,N*5E
$SDDBT,,,,,,*45
$SDDPT,,,*7B
$SDVLW,,N,,N,452.7,N,0.0,N*5E
$WIMWD,,T,,M,,N,,M*5A
$WIMWV,,R,,N,V*34
$WIMWV,,T,,N,V*32
$IIXDR,C,,C,AIRTEMP,A,-3.9,D,HEEL,A,4.2,D,TRIM,P,,B,BARO,A,,D,RUDDER*26
$SDHDG,,,,,*70
$GPZDA,194839,30,07,2015,03,00*47
$GPAAM,,,,N,*38
$SDMTW,,C*1A
$SDVHW,,T,,M,,N,,K*42
$GPGGA,194840,2255.1902,S,04310.2451,W,1,05,1.30,12,M,-5.6,M,,*47
$GPGLC,9960,,,,,,,,,,,,*75
$GPGLL,2255.1902,S,04310.2451,W,194840,A,A*46
$GPGSA,A,3,03,07,09,23,30,,,,,,,,5.60,1.30,4.80*00
$GPGSV,3,1,12,03,09,019,34,07,50,182,46,09,63,113,41,23,33,072,36*7D
$GPGSV,3,2,12,30,45,236,46,05,10,223,,08,18,107,,10,53,265,*7A
$GPGSV,3,3,12,19,19,093,,27,09,123,,28,37,331,,67,45,018,*7A
$GPRMC,194840,A,2255.1902,S,04310.2452,W,0.3,160.0,300715,22.6,W,A*39
$GPVTG,160.0,T,182.6,M,0.3,N,0.5,K,A*2F
$GPAPB,,,,,,,,,,,,,,,N*26
$GPBOD,,T,,M,,*47
$GPRMB,,,,,,,,,,,,,,N*04
$GPXTE,,,,,N,N*5E
$SDDBT,,,,,,*45
$SDDPT,,,*7B
$SDVLW,,N,,N,452.7,N,0.0,N*5E
$WIMWD,,T,,M,,N,,M*5A
$WIMWV,,R,,N,V*34
$WIMWV,,T,,N,V*32
$IIXDR,C,,C,AIRTEMP,A,0.3,D,HEEL,A,2.7,D,TRIM,P,,B,BARO,A,,D,RUDDER*01
$SDHDG,,,,,*70
$GPZDA,194841,30,07,2015,03,00*48
$GPAAM,,,,N,*38
$SDMTW,,C*1A
$SDVHW,,T,,M,,N,,K*42
$GPGGA,194842,2255.1902,S,04310.2453,W,1,09,1.30,12,M,-5.6,M,,*4B
$GPGLC,9960,,,,,,,,,,,,*75
$GPGLL,2255.1902,S,04310.2453,W,194842,A,A*46
$GPGSA,A,3,03,07,09,23,30,67,68,78,69,,,,2.00,1.30,1.50*06
$GPGSV,3,1,12,03,09,019,34,07,50,182,46,09,63,113,41,23,33,072,34*7F
$GPGSV,3,2,12,30,45,236,46,67,45,018,33,68,73,231,37,78,43,186,30*7F
$GPGSV,3,3,12,69,21,210,35,05,10,223,,08,18,107,,10,53,265,*75
$GPRMC,194842,A,2255.1902,S,04310.2453,W,0.5,154.0,300715,22.6,W,A*3B
$GPVTG,154.0,T,176.6,M,0.3,N,0.5,K,A*23
$GPAPB,,,,,,,,,,,,,,,N*26
$GPBOD,,T,,M,,*47
$GPRMB,,,,,,,,,,,,,,N*04
$GPXTE,,,,,N,N*5E
$SDDBT,,,,,,*45
$SDVLW,,N,,N,452.7,N,0.0,N*5E
$WIMWD,,T,,M,,N,,M*5A
$WIMWV,,R,,N,V*34
$WIMWV,,T,,N,V*32
$IIXDR,C,,C,AIRTEMP,A,-1.3,D,HEEL,A,3.1,D,TRIM,P,,B,BARO,A,,D,RUDDER*2A
$SDHDG,,,,,*70
$GPZDA,194843,30,07,2015,03,00*4A
$GPAAM,,,,N,*38
$SDDPT,,,*7B
$SDMTW,,C*1A
$SDVHW,,T,,M,,N,,K*42
$GPGGA,194844,2255.1902,S,04310.2453,W,1,09,1.30,12,M,-5.6,M,,*4D
$GPGLC,9960,,,,,,,,,,,,*75
$GPGLL,2255.1902,S,04310.2453,W,194844,A,A*40
$GPGSA,A,3,03,07,09,23,30,67,68,78,69,,,,2.00,1.30,1.50*06
$GPGSV,3,1,12,03,09,019,33,07,50,182,46,09,63,113,41,23,33,072,33*7F
$GPGSV,3,2,12,30,45,236,46,67,45,018,32,68,73,231,38,78,43,186,30*71
$GPGSV,3,3,12,69,21,210,35,05,10,223,,08,18,107,,10,53,265,*75
$GPRMC,194844,A,2255.1902,S,04310.2453,W,0.1,154.0,300715,22.6,W,A*39
$GPVTG,154.0,T,176.6,M,0.1,N,0.2,K,A*26
$GPAPB,,,,,,,,,,,,,,,N*26
$GPBOD,,T,,M,,*47
$GPRMB,,,,,,,,,,,,,,N*04
$GPXTE,,,,,N,N*5E
$SDDBT,,,,,,*45
$SDVLW,,N,,N,452.7,N,0.0,N*5E
$WIMWD,,T,,M,,N,,M*5A
$WIMWV,,R,,N,V*34
$WIMWV,,T,,N,V*32
$IIXDR,C,,C,AIRTEMP,A,-1.3,D,HEEL,A,3.4,D,TRIM,P,,B,BARO,A,,D,RUDDER*2F
$SDHDG,,,,,*70
$GPZDA,194845,30,07,2015,03,00*4C
$GPAAM,,,,N,*38
$SDDPT,,,*7B
$SDMTW,,C*1A
$SDVHW,,T,,M,0.0,N,0.0,K*42
$GPGGA,194846,2255.1901,S,04310.2450,W,1,09,1.30,12,M,-5.6,M,,*4F
$GPGLC,9960,,,,,,,,,,,,*75
$GPGLL,2255.1901,S,04310.2450,W,194846,A,A*42
$GPGSA,A,3,03,07,09,23,30,67,68,78,69,,,,2.00,1.30,1.50*06
$GPVTG,138.0,T,160.6,M,0.3,N,0.5,K,A*2E
$GPAPB,,,,,,,,,,,,,,,N*26
$GPBOD,,T,,M,,*47
$GPRMB,,,,,,,,,,,,,,N*04
$GPXTE,,,,,N,N*5E
$SDDBT,,,,,,*45
$SDVLW,,N,0.0,N,452.7,N,0.0,N*70
$WIMWD,,T,,M,,N,,M*5A
$WIMWV,237.7,R,1.2,N,A*21
$WIMWV,,T,,N,V*32
$IIXDR,C,,C,AIRTEMP,A,-1.3,D,HEEL,A,3.3,D,TRIM,P,,B,BARO,A,,D,RUDDER*28
$SDHDG,,,,,*70
$GPGSV,3,1,12,03,09,019,33,07,50,182,46,09,63,113,41,23,33,072,34*78
$GPGSV,3,2,12,30,45,236,47,67,45,018,33,68,73,231,38,78,43,186,30*71
$GPGSV,3,3,12,69,21,210,35,05,10,223,,08,18,107,,10,53,265,*75
$GPRMC,194847,A,2255.1900,S,04310.2450,W,0.1,135.0,300715,22.6,W,A*3C
$GPZDA,194847,30,07,2015,03,00*4E
$GPAAM,,,,N,*38
$SDDPT,,,*7B
$SDMTW,,C*1A
$SDVHW,,T,,M,0.0,N,0.0,K*42
$GPGGA,194848,2255.1899,S,04310.2449,W,1,09,1.30,13,M,-5.6,M,,*48
$GPGLC,9960,,,,,,,,,,,,*75
$GPGSA,A,3,03,07,09,23,30,67,68,78,69,,,,2.00,1.30,1.50*06
$GPVTG,127.0,T,149.6,M,0.3,N,0.5,K,A*2B
$GPAPB,,,,,,,,,,,,,,,N*26
$GPBOD,,T,,M,,*47
$GPRMB,,,,,,,,,,,,,,N*04
$GPXTE,,,,,N,N*5E
$SDDBT,,,,,,*45
$SDVLW,,N,0.0,N,452.7,N,0.0,N*70
$WIMWD,,T,,M,,N,,M*5A
$WIMWV,245.5,R,1.2,N,A*26
$WIMWV,,T,,N,V*32
$IIXDR,C,,C,AIRTEMP,A,0.9,D,HEEL,A,3.0,D,TRIM,P,,B,BARO,A,,D,RUDDER*0D
$SDHDG,,,,,*70
$GPGLL,2255.1897,S,04310.2450,W,194849,A,A*43
$GPGSV,3,1,12,03,09,019,33,07,50,182,46,09,63,113,42,23,33,071,33*7F
$GPGSV,3,2,12,30,45,236,47,67,45,018,33,68,73,231,38,78,43,186,30*71
$GPGSV,3,3,12,69,21,210,35,05,10,223,,08,18,107,,10,53,265,*75
$GPRMC,194849,A,2255.1897,S,04310.2450,W,0.1,113.0,300715,22.6,W,A*39
$GPZDA,194849,30,07,2015,03,00*40
$GPAAM,,,,N,*38
$SDDPT,4.0,0.0,*7F
$SDMTW,,C*1A
$SDVHW,,T,,M,0.0,N,0.0,K*42
$GPGGA,194850,2255.1902,S,04310.2452,W,1,09,0.80,10,M,-5.6,M,,*41
$GPGLC,9960,,,,,,,,,,,,*75
$GPGSA,A,3,03,07,09,23,30,67,68,78,69,,,,1.30,0.80,1.10*08
$GPVTG,113.0,T,135.6,M,0.2,N,0.4,K,A*27
$GPAPB,,,,,,,,,,,,,,,N*26
$GPBOD,,T,,M,,*47
$GPRMB,,,,,,,,,,,,,,N*04
$GPXTE,,,,,N,N*5E
$SDDBT,13.1,f,4.0,M,2.1,F*32
$SDVLW,,N,0.0,N,452.7,N,0.0,N*70
$WIMWD,,T,,M,,N,,M*5A
$WIMWV,260.5,R,1.2,N,A*21
$WIMWV,,T,,N,V*32
$IIXDR,C,,C,AIRTEMP,A,-2.3,D,HEEL,A,3.7,D,TRIM,P,,B,BARO,A,,D,RUDDER*2F
$SDHDG,,,,,*70
$GPGLL,2255.1904,S,04310.2456,W,194851,A,A*47
$GPRMC,194851,A,2255.1904,S,04310.2455,W,0.1,101.0,300715,22.6,W,A*3D
$GPZDA,194851,30,07,2015,03,00*49
$GPAAM,,,,N,*38
$SDDPT,4.0,0.0,*7F
$SDMTW,23.7,C*02
$SDVHW,,T,,M,0.0,N,0.0,K*42
$GPGGA,194852,2255.1907,S,04310.2456,W,1,12,0.80,8,M,-5.6,M,,*71
$GPGLC,9960,,,,,,,,,,,,*75
$GPGSV,3,1,12,03,09,019,32,05,10,223,44,07,50,182,46,09,63,113,42*7E
$GPGSV,3,2,12,23,33,071,34,27,09,123,38,28,38,331,43,30,45,236,46*7C
$GPGSV,3,3,12,67,45,018,33,68,73,231,39,78,43,186,29,69,21,210,35*76
$GPVTG,96.0,T,118.6,M,0.1,N,0.2,K,A*11
$GPAPB,,,,,,,,,,,,,,,N*26
$GPBOD,,T,,M,,*47
$GPRMB,,,,,,,,,,,,,,N*04
$GPXTE,,,,,N,N*5E
$SDDBT,13.2,f,4.0,M,2.2,F*32
$SDVLW,,N,0.0,N,452.7,N,0.0,N*70
$WIMWV,304.1,R,0.5,N,A*20
$WIMWV,,T,,N,V*32
$IIXDR,C,,C,AIRTEMP,A,1.0,D,HEEL,A,3.4,D,TRIM,P,,B,BARO,A,,D,RUDDER*01
$SDHDG,,,,,*70
$GPGLL,2255.1908,S,04310.2456,W,194853,A,A*49
$GPGSA,A,3,03,05,07,09,23,27,28,30,67,68,78,69,1.30,0.80,1.10*02
$GPZDA,194853,30,07,2015,03,00*4B
$GPAAM,,,,N,*38
$SDDPT,4.0,0.0,*7F
$SDMTW,23.7,C*02
$SDVHW,,T,,M,0.0,N,0.0,K*42
$WIMWD,,T,,M,,N,,M*5A
$GPGGA,194854,2255.1908,S,04310.2456,W,1,12,0.80,7,M,-5.6,M,,*77
$GPGLC,9960,,,,,,,,,,,,*75
$GPGSV,3,1,12,03,09,019,33,05,10,223,44,07,50,182,46,09,63,113,41*7C
$GPGSV,3,2,12,23,33,071,35,27,09,123,38,28,38,331,44,30,45,236,46*7A
$GPGSV,3,3,12,67,45,018,34,68,73,231,39,78,43,186,29,69,21,210,36*72
$GPRMC,194854,A,2255.1908,S,04310.2456,W,0.3,104.0,300715,22.6,W,A*30
$GPVTG,104.0,T,126.6,M,0.3,N,0.5,K,A*23
$GPAPB,,,,,,,,,,,,,,,N*26
$GPRMB,,,,,,,,,,,,,,N*04
$GPXTE,,,,,N,N*5E
$SDDBT,13.2,f,4.0,M,2.2,F*32
$SDVLW,,N,0.0,N,452.7,N,0.0,N*70
$WIMWV,304.7,R,1.1,N,A*23
$WIMWV,,T,,N,V*32
$IIXDR,C,,C,AIRTEMP,A,0.4,D,HEEL,A,3.6,D,TRIM,P,,B,BARO,A,,D,RUDDER*06
$SDHDG,,,,,*70
$GPGLL,2255.1908,S,04310.2456,W,194855,A,A*4F
$GPGSA,A,3,03,05,07,09,23,27,28,30,67,68,78,69,1.30,0.80,1.10*02
$GPZDA,194855,30,07,2015,03,00*4D
$GPAAM,,,,N,*38
$GPBOD,,T,,M,,*47
$SDDPT,4.0,0.0,*7F
$SDMTW,23.7,C*02
$SDVHW,,T,,M,0.0,N,0.0,K*42
$WIMWD,,T,,M,,N,,M*5A
$GPGGA,194856,2255.1906,S,04310.2455,W,1,12,0.80,8,M,-5.6,M,,*77
$GPGLC,9960,,,,,,,,,,,,*75
$GPGSV,3,1,12,03,09,019,27,05,10,223,44,07,50,182,47,09,63,113,41*78
$GPGSV,3,2,12,23,33,071,35,27,09,123,37,28,38,331,44,30,45,236,45*76
$GPGSV,3,3,12,67,45,018,35,68,73,231,39,78,43,186,30,69,21,210,36*7B
$GPRMC,194856,A,2255.1906,S,04310.2455,W,0.2,104.0,300715,22.6,W,A*3E
$GPVTG,104.0,T,126.6,M,0.2,N,0.4,K,A*23
$GPAPB,,,,,,,,,,,,,,,N*26
$GPRMB,,,,,,,,,,,,,,N*04
$GPXTE,,,,,N,N*5E
$SDDBT,13.2,f,4.0,M,2.2,F*32
$SDVLW,,N,0.0,N,452.7,N,0.0,N*70
$IIXDR,C,,C,AIRTEMP,A,0.8,D,HEEL,A,3.9,D,TRIM,P,,B,BARO,A,,D,RUDDER*05
$SDHDG,,,,,*70
$GPGSA,A,3,03,05,07,09,23,27,28,30,67,68,78,69,1.30,0.80,1.10*02
$GPZDA,194857,30,07,2015,03,00*4F
$GPAAM,,,,N,*38
$GPBOD,,T,,M,,*47
$SDDPT,4.0,0.0,*7F
$SDMTW,23.7,C*02
$SDVHW,,T,,M,0.0,N,0.0,K*42
$WIMWD,,T,,M,,N,,M*5A
$WIMWV,295.4,R,1.4,N,A*2C
$WIMWV,,T,,N,V*32
$GPGGA,194858,2255.1904,S,04310.2455,W,1,12,0.80,7,M,-5.6,M,,*74
$GPGLC,9960,,,,,,,,,,,,*75
$GPGLL,2255.1904,S,04310.2455,W,194858,A,A*4D
$GPGSV,3,1,12,03,09,019,29,05,10,223,44,07,50,182,46,09,63,113,41*77
$GPGSV,3,2,12,23,33,071,34,27,09,123,38,28,38,331,43,30,45,236,46*7C
$GPGSV,3,3,12,67,45,018,36,68,73,231,38,78,43,186,30,69,21,210,36*79
$GPRMC,194858,A,2255.1904,S,04310.2455,W,0.2,116.0,300715,22.6,W,A*31
$GPVTG,116.0,T,138.6,M,0.2,N,0.4,K,A*2F
$GPAPB,,,,,,,,,,,,,,,N*26
$GPRMB,,,,,,,,,,,,,,N*04
$GPXTE,,,,,N,N*5E
$SDDBT,13.1,f,4.0,M,2.1,F*32
$SDVLW,,N,0.0,N,452.7,N,0.0,N*70
$IIXDR,C,,C,AIRTEMP,A,0.5,D,HEEL,A,3.4,D,TRIM,P,,B,BARO,A,,D,RUDDER*05
$SDHDG,,,,,*70
$GPGSA,A,3,03,05,07,09,23,27,28,30,67,68,78,69,1.30,0.80,1.10*02
$GPZDA,194859,30,07,2015,03,00*41
$GPAAM,,,,N,*38
$GPBOD,,T,,M,,*47
$SDDPT,4.0,0.0,*7F
$SDMTW,23.7,C*02
$SDVHW,,T,,M,0.0,N,0.0,K*42
$WIMWD,,T,,M,,N,,M*5A
$WIMWV,276.7,R,2.0,N,A*25
$WIMWV,,T,,N,V*32
$GPGGA,194900,2255.1901,S,04310.2454,W,1,12,0.80,7,M,-5.6,M,,*7C
$GPGLC,9960,,,,,,,,,,,,*75
$GPGLL,2255.1901,S,04310.2454,W,194900,A,A*45
$GPGSV,3,1,12,03,09,019,27,05,10,223,44,07,50,182,46,09,63,113,41*79
$GPGSV,3,2,12,23,33,071,35,27,09,123,38,28,38,331,43,30,45,236,46*7D
$GPGSV,3,3,12,67,45,018,36,68,73,231,38,78,43,186,31,69,21,210,35*7B
$GPRMC,194900,A,2255.1901,S,04310.2454,W,0.2,112.0,300715,22.6,W,A*3D
$GPVTG,112.0,T,134.6,M,0.1,N,0.2,K,A*22
$GPAPB,,,,,,,,,,,,,,,N*26
$GPRMB,,,,,,,,,,,,,,N*04
$GPXTE,,,,,N,N*5E
$SDDBT,13.1,f,4.0,M,2.1,F*32
$SDVLW,,N,0.0,N,452.7,N,0.0,N*70
$IIXDR,C,,C,AIRTEMP,A,-1.0,D,HEEL,A,3.5,D,TRIM,P,,B,BARO,A,,D,RUDDER*2D
$SDHDG,,,,,*70
$GPZDA,194901,30,07,2015,03,00*4D
$GPAAM,,,,N,*38
$GPBOD,,T,,M,,*47
$SDDPT,4.0,0.0,*7F
$SDMTW,23.7,C*02
$SDVHW,,T,,M,0.0,N,0.0,K*42
$WIMWD,,T,,M,,N,,M*5A
$WIMWV,293.3,R,2.1,N,A*2B
$WIMWV,,T,,N,V*32
$GPGGA,194902,2255.1899,S,04310.2455,W,1,12,0.80,6,M,-5.6,M,,*7E
$GPGLC,9960,,,,,,,,,,,,*75
$GPGLL,2255.1899,S,04310.2455,W,194902,A,A*46
$GPGSA,A,3,03,05,07,09,23,27,28,30,67,68,78,69,1.30,0.80,1.10*02
$GPGSV,3,1,12,03,09,019,29,05,10,223,45,07,50,182,46,09,63,113,41*76
$GPGSV,3,2,12,23,33,071,34,27,09,123,38,28,38,331,44,30,45,236,46*7B
$GPGSV,3,3,12,67,45,018,36,68,73,231,38,78,43,186,30,69,21,210,35*7A
$GPRMC,194902,A,2255.1899,S,04310.2455,W,0.1,112.0,300715,22.6,W,A*3D
$GPVTG,112.0,T,134.6,M,0.1,N,0.2,K,A*22
$GPAPB,,,,,,,,,,,,,,,N*26
$GPRMB,,,,,,,,,,,,,,N*04
$GPXTE,,,,,N,N*5E
$SDDBT,13.1,f,4.0,M,2.1,F*32
$SDVLW,,N,0.0,N,452.7,N,0.0,N*70
$SDHDG,,,,,*70
$GPZDA,194903,30,07,2015,03,00*4F
$GPAAM,,,,N,*38
$GPBOD,,T,,M,,*47
$SDDPT,4.0,0.0,*7F
$SDMTW,23.7,C*02
$SDVHW,,T,,M,0.0,N,0.0,K*42
$WIMWD,,T,,M,,N,,M*5A
$WIMWV,288.6,R,2.1,N,A*24
$WIMWV,,T,,N,V*32
$IIXDR,C,,C,AIRTEMP,A,0.1,D,HEEL,A,3.2,D,TRIM,P,,B,BARO,A,,D,RUDDER*07
$GPGGA,194904,2255.1901,S,04310.2457,W,1,12,0.80,6,M,-5.6,M,,*7A
$GPGLC,9960,,,,,,,,,,,,*75
$GPGLL,2255.1901,S,04310.2457,W,194904,A,A*42
$GPGSA,A,3,03,05,07,09,23,27,28,30,67,68,78,69,1.30,0.80,1.10*02
$GPGSV,3,1,12,03,09,019,28,05,10,223,45,07,50,182,47,09,63,113,41*76
$GPGSV,3,2,12,23,33,071,35,27,09,123,37,28,38,331,44,30,45,236,46*75
$GPGSV,3,3,12,67,45,018,35,68,73,231,38,78,43,186,30,69,21,210,36*7A
$GPRMC,194904,A,2255.1901,S,04310.2457,W,0.0,112.0,300715,22.6,W,A*38
$GPVTG,112.0,T,134.6,M,0.0,N,0.0,K,A*21
$GPAPB,,,,,,,,,,,,,,,N*26
$GPRMB,,,,,,,,,,,,,,N*04
$GPXTE,,,,,N,N*5E
$SDDBT,13.2,f,4.0,M,2.2,F*32
$SDVLW,,N,0.0,N,452.7,N,0.0,N*70
$SDHDG,,,,,*70
$GPZDA,194905,30,07,2015,03,00*49
$GPAAM,,,,N,*38
$GPBOD,,T,,M,,*47
$SDDPT,4.1,0.0,*7E
$SDMTW,23.7,C*02
$SDVHW,,T,,M,0.0,N,0.0,K*42
$WIMWD,,T,,M,,N,,M*5A
$WIMWV,265.3,R,1.7,N,A*27
$WIMWV,,T,,N,V*32
$IIXDR,C,,C,AIRTEMP,A,-2.1,D,HEEL,A,3.8,D,TRIM,P,,B,BARO,A,,D,RUDDER*22
$GPGGA,194906,2255.1902,S,04310.2454,W,1,12,0.80,6,M,-5.6,M,,*78
$GPGLC,9960,,,,,,,,,,,,*75
$GPGLL,2255.1902,S,04310.2454,W,194906,A,A*40
$GPGSA,A,3,03,05,07,09,23,27,28,30,67,68,78,69,1.30,0.80,1.10*02
$GPGSV,3,1,12,03,09,019,27,05,10,223,44,07,50,182,47,09,63,113,42*7B
$GPGSV,3,2,12,23,33,071,35,27,09,123,38,28,38,331,43,30,45,236,47*7C
$GPGSV,3,3,12,67,45,018,34,68,73,231,38,78,43,186,30,69,21,210,37*7A
$GPRMC,194906,A,2255.1902,S,04310.2454,W,0.2,112.0,300715,22.6,W,A*38
$GPVTG,112.0,T,134.6,M,0.2,N,0.4,K,A*27
$GPAPB,,,,,,,,,,,,,,,N*26
$GPRMB,,,,,,,,,,,,,,N*04
$GPXTE,,,,,N,N*5E
$SDDBT,13.3,f,4.0,M,2.2,F*33
$SDVLW,,N,0.0,N,452.7,N,0.0,N*70
$SDHDG,,,,,*70
$GPZDA,194907,30,07,2015,03,00*4B
$GPAAM,,,,N,*38
$GPBOD,,T,,M,,*47
$SDDPT,4.0,0.0,*7F
$SDMTW,23.7,C*02
$SDVHW,,T,,M,0.0,N,0.0,K*42
$WIMWD,,T,,M,,N,,M*5A
$WIMWV,319.6,R,1.6,N,A*29
$WIMWV,,T,,N,V*32
$IIXDR,C,,C,AIRTEMP,A,0.1,D,HEEL,A,3.4,D,TRIM,P,,B,BARO,A,,D,RUDDER*01
$GPGGA,194908,2255.1899,S,04310.2452,W,1,12,0.80,4,M,-5.6,M,,*71
$GPGLC,9960,,,,,,,,,,,,*75
$GPGLL,2255.1899,S,04310.2452,W,194908,A,A*4B
$GPGSA,A,3,03,05,07,09,23,27,28,30,67,68,78,69,1.30,0.80,1.10*02
$GPGSV,3,1,12,03,09,019,29,05,10,223,44,07,50,182,47,09,63,113,43*74
$GPGSV,3,2,12,23,33,071,35,27,09,123,38,28,38,331,43,30,45,236,47*7C
$GPGSV,3,3,12,67,45,018,34,68,73,231,38,78,43,186,30,69,21,210,38*75
$GPVTG,69.0,T,91.6,M,0.1,N,0.2,K,A*21
$GPAPB,,,,,,,,,,,,,,,N*26
$GPRMB,,,,,,,,,,,,,,N*04
$GPXTE,,,,,N,N*5E
$SDDBT,13.3,f,4.0,M,2.2,F*33
$SDVLW,,N,0.0,N,452.7,N,0.0,N*70
$SDHDG,283.1,,,22.5,W*1A
$GPRMC,194909,A,2255.1900,S,04310.2451,W,0.1,69.0,300715,22.6,W,A*0E
$GPZDA,194909,30,07,2015,03,00*45
$GPAAM,,,,N,*38
$SDDPT,4.0,0.0,*7F
$SDMTW,23.7,C*02
$SDVHW,260.7,T,283.3,M,0.0,N,0.0,K*4B
$WIMWD,238.0,T,260.6,M,1.5,N,0.8,M*5D
$WIMWV,289.2,R,1.7,N,A*24
$WIMWV,336.3,T,1.5,N,A*24
$IIXDR,C,,C,AIRTEMP,A,0.1,D,HEEL,A,3.1,D,TRIM,P,,B,BARO,A,,D,RUDDER*04
$GPGGA,194910,2255.1901,S,04310.2453,W,1,12,0.80,4,M,-5.6,M,,*79
$GPGLL,2255.1901,S,04310.2453,W,194910,A,A*43
$GPGSA,A,3,03,05,07,09,23,27,28,30,67,68,78,69,1.30,0.80,1.10*02
$GPGSV,3,1,12,03,09,019,34,05,10,223,44,07,50,182,47,09,63,113,42*79
$GPGSV,3,2,12,23,33,071,36,27,09,123,39,28,38,331,43,30,45,236,47*7E
$GPGSV,3,3,12,67,45,018,33,68,73,231,38,78,43,186,30,69,21,210,37*7D
$GPVTG,38.0,T,60.6,M,0.2,N,0.4,K,A*2E
$GPAPB,,,,,,,,,,,,,,,N*26
$GPBOD,,T,,M,,*47
$GPRMB,,,,,,,,,,,,,,N*04
$GPXTE,,,,,N,N*5E
$SDDBT,13.1,f,4.0,M,2.1,F*32
$SDVLW,,N,0.0,N,452.7,N,0.0,N*70
$SDHDG,283.8,,,22.5,W*13
$GPGLC,9960,,,,,,,,,,,,*75
$GPRMC,194911,A,2255.1902,S,04310.2453,W,0.1,38.0,300715,22.6,W,A*03
$GPZDA,194911,30,07,2015,03,00*4C
$GPAAM,,,,N,*38
$SDDPT,4.0,0.0,*7F
$SDMTW,23.7,C*02
$SDVHW,261.4,T,284.0,M,0.0,N,0.0,K*4D
$WIMWD,222.7,T,245.3,M,5.5,N,2.8,M*55
$WIMWV,301.8,R,5.5,N,A*29
$WIMWV,321.7,T,5.5,N,A*22
$IIXDR,C,,C,AIRTEMP,A,0.8,D,HEEL,A,3.9,D,TRIM,P,,B,BARO,A,,D,RUDDER*05
$GPGGA,194912,2255.1902,S,04310.2452,W,1,12,0.80,5,M,-5.6,M,,*78
$GPGLL,2255.1902,S,04310.2452,W,194912,A,A*43
$GPGSA,A,3,03,05,07,09,23,27,28,30,67,68,78,77,1.30,0.80,1.00*0C
$GPGSV,3,1,12,03,09,019,35,05,10,223,44,07,50,182,47,09,63,113,41*7B
$GPGSV,3,2,12,23,33,071,36,27,09,123,39,28,38,331,41,30,45,236,47*7C
$GPGSV,3,3,12,67,45,018,33,68,73,231,39,78,43,186,29,77,08,142,28*7A
$GPVTG,38.0,T,60.6,M,0.2,N,0.4,K,A*2E
$GPAPB,,,,,,,,,,,,,,,N*26
$GPBOD,,T,,M,,*47
$GPRMB,,,,,,,,,,,,,,N*04
$GPXTE,,,,,N,N*5E
$SDDBT,13.2,f,4.0,M,2.2,F*32
$SDVLW,,N,0.0,N,452.7,N,0.0,N*70
$SDHDG,284.6,,,22.5,W*1A
$GPGLC,9960,,,,,,,,,,,,*75
$GPRMC,194913,A,2255.1901,S,04310.2452,W,0.4,351.0,300715,22.6,W,A*3A
$GPZDA,194913,30,07,2015,03,00*4E
$GPAAM,,,,N,*38
$SDDPT,4.0,0.0,*7F
$SDMTW,23.7,C*02
$SDVHW,262.0,T,284.6,M,0.0,N,0.0,K*4C
$WIMWD,216.8,T,239.4,M,7.4,N,3.8,M*53
$WIMWV,309.9,R,7.4,N,A*23
$WIMWV,314.2,T,7.4,N,A*22
$IIXDR,C,,C,AIRTEMP,A,0.4,D,HEEL,A,3.4,D,TRIM,P,,B,BARO,A,,D,RUDDER*04
$GPGGA,194914,2255.1902,S,04310.2452,W,1,12,0.80,5,M,-5.6,M,,*7E
$GPGLL,2255.1902,S,04310.2452,W,194914,A,A*45
$GPGSA,A,3,03,05,07,09,23,27,28,30,67,68,78,77,1.30,0.80,1.00*0C
$GPGSV,3,1,12,03,08,019,34,05,10,223,44,07,50,182,46,09,63,113,41*7A
$GPGSV,3,2,12,23,33,071,36,27,09,123,39,28,38,331,40,30,45,236,47*7D
$GPGSV,3,3,12,67,45,018,33,68,73,231,39,78,43,186,29,77,08,142,26*74
$GPVTG,351.0,T,13.6,M,0.2,N,0.4,K,A*16
$GPAPB,,,,,,,,,,,,,,,N*26
$GPBOD,,T,,M,,*47
$GPRMB,,,,,,,,,,,,,,N*04
$GPXTE,,,,,N,N*5E
$SDDBT,13.3,f,4.0,M,2.2,F*33
$SDVLW,,N,0.0,N,452.7,N,0.0,N*70
$SDHDG,285.2,,,22.5,W*1F
$GPGLC,9960,,,,,,,,,,,,*75
$GPRMC,194915,A,2255.1902,S,04310.2453,W,0.1,335.0,300715,22.6,W,A*39
$GPZDA,194915,30,07,2015,03,00*48
$GPAAM,,,,N,*38
$SDDPT,4.0,0.0,*7F
$SDMTW,23.7,C*02
$SDVHW,262.6,T,285.2,M,0.0,N,0.0,K*4F
$WIMWD,211.7,T,234.2,M,6.6,N,3.4,M*5F
$WIMWV,311.8,R,6.6,N,A*28
$WIMWV,309.0,T,6.6,N,A*2F
$IIXDR,C,,C,AIRTEMP,A,0.1,D,HEEL,A,3.7,D,TRIM,P,,B,BARO,A,,D,RUDDER*02
$GPGGA,194916,2255.1903,S,04310.2455,W,1,12,0.80,5,M,-5.6,M,,*7A
$GPGLL,2255.1903,S,04310.2455,W,194916,A,A*41
$GPGSA,A,3,03,05,07,09,23,27,28,30,67,68,78,77,1.30,0.80,1.00*0C
$GPGSV,3,1,12,03,08,019,34,05,10,223,44,07,50,182,46,09,63,113,40*7B
$GPGSV,3,2,12,23,33,071,40,27,09,123,40,28,38,331,39,30,45,236,47*7C
$GPGSV,3,3,12,67,45,018,34,68,73,231,39,78,43,186,29,77,08,142,25*70
$GPVTG,335.0,T,357.6,M,0.2,N,0.4,K,A*27
$GPAPB,,,,,,,,,,,,,,,N*26
$GPBOD,,T,,M,,*47
$GPRMB,,,,,,,,,,,,,,N*04
$GPXTE,,,,,N,N*5E
$SDDBT,13.1,f,4.0,M,2.1,F*32
$SDVLW,,N,0.0,N,452.7,N,0.0,N*70
$SDHDG,285.4,,,22.5,W*19
$GPGLC,9960,,,,,,,,,,,,*75
$GPRMC,194917,A,2255.1904,S,04310.2457,W,0.1,343.0,300715,22.6,W,A*38
$GPZDA,194917,30,07,2015,03,00*4A
$GPAAM,,,,N,*38
$SDDPT,4.0,0.0,*7F
$SDMTW,23.7,C*02
$SDVHW,262.8,T,285.4,M,0.0,N,0.0,K*47
$WIMWD,212.4,T,235.0,M,5.5,N,2.8,M*51
$WIMWV,278.2,R,5.5,N,A*2C
$WIMWV,309.1,T,5.5,N,A*2E
$IIXDR,C,,C,AIRTEMP,A,0.5,D,HEEL,A,3.2,D,TRIM,P,,B,BARO,A,,D,RUDDER*03
$GPGGA,194918,2255.1903,S,04310.2455,W,1,12,0.80,5,M,-5.6,M,,*74
$GPGLL,2255.1903,S,04310.2455,W,194918,A,A*4F
$GPGSA,A,3,03,05,07,09,23,27,28,30,67,68,78,77,1.30,0.80,1.00*0C
$GPGSV,3,1,12,03,08,019,35,05,11,223,43,07,50,182,46,09,63,113,40*7C
$GPGSV,3,2,12,23,33,071,40,27,09,123,40,28,38,331,39,30,45,236,46*7D
$GPGSV,3,3,12,67,45,018,34,68,73,231,38,78,43,186,29,77,08,142,26*72
$GPVTG,341.0,T,3.6,M,0.3,N,0.5,K,A*26
$GPAPB,,,,,,,,,,,,,,,N*26
$GPBOD,,T,,M,,*47
$GPRMB,,,,,,,,,,,,,,N*04
$GPXTE,,,,,N,N*5E
$SDDBT,13.2,f,4.0,M,2.2,F*32
$SDVLW,,N,0.0,N,452.7,N,0.0,N*70
$SDHDG,283.0,,,22.5,W*1B
$GPGLC,9960,,,,,,,,,,,,*75
$GPRMC,194919,A,2255.1904,S,04310.2453,W,0.1,341.0,300715,22.6,W,A*30
$GPZDA,194919,30,07,2015,03,00*44
$GPAAM,,,,N,*38
$SDDPT,4.0,0.0,*7F
$SDMTW,23.7,C*02
$SDVHW,260.0,T,282.6,M,0.0,N,0.0,K*48
$WIMWD,202.4,T,225.0,M,4.4,N,2.2,M*5B
$WIMWV,294.7,R,4.4,N,A*2B
$WIMWV,302.4,T,4.4,N,A*20
$IIXDR,C,,C,AIRTEMP,A,0.9,D,HEEL,A,3.1,D,TRIM,P,,B,BARO,A,,D,RUDDER*0C
$GPGGA,194920,2255.1906,S,04310.2452,W,1,12,0.70,5,M,-5.6,M,,*72
$GPGSA,A,3,03,05,07,09,23,27,28,30,67,68,78,77,1.20,0.70,1.00*02
$GPGSV,3,1,12,03,08,019,33,05,11,223,44,07,50,182,46,09,63,113,40*7D
$GPGSV,3,2,12,23,33,071,34,27,09,123,39,28,38,331,42,30,45,236,46*7C
$GPGSV,3,3,12,67,45,018,34,68,73,231,38,78,43,186,29,77,08,142,27*73
$GPVTG,337.0,T,359.6,M,0.4,N,0.7,K,A*2E
$GPAPB,,,,,,,,,,,,,,,N*26
$GPRMB,,,,,,,,,,,,,,N*04
$GPXTE,,,,,N,N*5E
$SDDBT,13.2,f,4.0,M,2.2,F*32
$SDVLW,,N,0.0,N,452.7,N,0.0,N*70
$SDHDG,281.8,,,22.5,W*11
$GPGLC,9960,,,,,,,,,,,,*75
$GPGLL,2255.1904,S,04310.2454,W,194921,A,A*43
$GPRMC,194921,A,2255.1904,S,04310.2454,W,0.1,337.0,300715,22.6,W,A*3D
$GPZDA,194921,30,07,2015,03,00*4F
$GPAAM,,,,N,*38
$GPBOD,,T,,M,,*47
$SDDPT,4.0,0.0,*7F
$SDMTW,23.7,C*02
$SDVHW,259.4,T,282.0,M,0.0,N,0.0,K*40
$WIMWD,196.6,T,219.2,M,3.1,N,1.6,M*5F
$WIMWV,230.8,R,3.4,N,A*2D
$WIMWV,296.2,T,3.1,N,A*28
$IIXDR,C,,C,AIRTEMP,A,0.9,D,HEEL,A,3.8,D,TRIM,P,,B,BARO,A,,D,RUDDER*05
$GPGSA,A,3,03,05,07,09,19,23,27,28,30,67,68,78,1.20,0.70,1.00*0A
$GPGSV,3,1,12,03,08,019,31,05,11,223,44,07,50,182,47,09,63,113,42*7C
$GPGSV,3,2,12,19,19,094,34,23,33,071,33,27,09,123,40,28,38,331,42*78
$GPGSV,3,3,12,30,45,236,44,67,45,018,34,68,73,231,38,78,43,186,29*7C
$GPVTG,327.0,T,349.6,M,0.1,N,0.2,K,A*2E
$GPAPB,,,,,,,,,,,,,,,N*26
$GPRMB,,,,,,,,,,,,,,N*04
$GPXTE,,,,,N,N*5E
$SDDBT,13.2,f,4.0,M,2.2,F*32
$SDVLW,,N,0.0,N,452.7,N,0.0,N*70
$GPGGA,194923,2255.1903,S,04310.2456,W,1,12,0.70,5,M,-5.6,M,,*70
$SDHDG,284.2,,,22.5,W*1E
$GPGLL,2255.1903,S,04310.2456,W,194923,A,A*44
$GPRMC,194923,A,2255.1903,S,04310.2456,W,0.0,327.0,300715,22.6,W,A*3A
$GPAAM,,,,N,*38
$GPBOD,,T,,M,,*47
$SDDPT,4.0,0.0,*7F
$SDMTW,23.7,C*02
$SDVHW,261.7,T,284.3,M,0.0,N,0.0,K*4D
$WIMWD,174.0,T,196.6,M,2.8,N,1.4,M*5F
$WIMWV,270.5,R,2.8,N,A*29
$WIMWV,272.5,T,2.8,N,A*2D
$IIXDR,C,,C,AIRTEMP,A,-1.2,D,HEEL,A,3.5,D,TRIM,P,,B,BARO,A,,D,RUDDER*2F
$GPGLC,9960,,,,,,,,,,,,*75
$GPVTG,327.0,T,349.6,M,0.1,N,0.2,K,A*2E
$GPZDA,194924,30,07,2015,03,00*4A
$GPAPB,,,,,,,,,,,,,,,N*26
$GPRMB,,,,,,,,,,,,,,N*04
$GPXTE,,,,,N,N*5E
$SDDBT,13.3,f,4.0,M,2.2,F*33
$SDVLW,,N,0.0,N,452.7,N,0.0,N*70
$GPGGA,194925,2255.1906,S,04310.2458,W,1,12,0.70,5,M,-5.6,M,,*7D
$GPGLL,2255.1906,S,04310.2458,W,194925,A,A*49
$GPGSA,A,3,03,05,07,09,19,23,27,28,30,67,68,78,1.20,0.70,1.00*0A
$GPGSV,3,1,12,03,08,019,31,05,11,223,43,07,50,182,47,09,63,112,42*7A
$GPGSV,3,2,12,19,19,094,34,23,33,071,35,27,09,123,39,28,38,331,42*70
$GPGSV,3,3,12,30,45,236,44,67,45,017,33,68,73,231,38,78,43,186,29*74
$SDHDG,283.4,,,22.5,W*1F
$GPRMC,194925,A,2255.1906,S,04310.2458,W,0.2,322.0,300715,22.6,W,A*30
$GPAAM,,,,N,*38
$GPBOD,,T,,M,,*47
$SDDPT,4.0,0.0,*7F
$SDMTW,23.7,C*02
$SDVHW,260.8,T,283.4,M,0.0,N,0.0,K*43
$WIMWD,179.5,T,202.1,M,2.3,N,1.2,M*53
$WIMWV,291.6,R,2.3,N,A*2E
$WIMWV,278.9,T,2.3,N,A*20
$IIXDR,C,,C,AIRTEMP,A,-1.6,D,HEEL,A,2.5,D,TRIM,P,,B,BARO,A,,D,RUDDER*2A
$GPGLC,9960,,,,,,,,,,,,*75
$GPZDA,194926,30,07,2015,03,00*48
$GPRMB,,,,,,,,,,,,,,N*04
$SDDBT,13.3,f,4.0,M,2.2,F*33
$SDVLW,,N,0.0,N,452.7,N,0.0,N*70
$GPGGA,194927,2255.1904,S,04310.2458,W,1,12,0.70,4,M,-5.6,M,,*7C
$GPGLL,2255.1903,S,04310.2458,W,194927,A,A*4E
$GPGSA,A,3,03,05,07,09,19,23,27,28,30,67,68,78,1.20,0.70,1.00*0A
$GPGSV,3,1,12,03,08,019,31,05,11,223,44,07,50,182,47,09,63,112,42*7D
$GPGSV,3,2,12,19,19,094,34,23,33,071,37,27,09,123,38,28,38,331,42*73
$GPGSV,3,3,12,30,45,236,44,67,45,017,33,68,74,232,39,78,43,186,30*79
$SDHDG,282.2,,,22.5,W*18
$GPRMC,194927,A,2255.1903,S,04310.2458,W,0.2,319.0,300715,22.6,W,A*3F
$GPVTG,319.0,T,341.6,M,0.2,N,0.4,K,A*2E
$GPAAM,,,,N,*38
$GPAPB,,,,,,,,,,,,,,,N*26
$GPBOD,,T,,M,,*47
$GPXTE,,,,,N,N*5E
$SDDPT,4.0,0.0,*7F
$SDMTW,23.7,C*02
$SDVHW,259.7,T,282.3,M,0.0,N,0.0,K*40
$WIMWD,177.6,T,200.1,M,2.0,N,1.0,M*5D
$WIMWV,264.3,R,2.2,N,A*20
$WIMWV,278.1,T,2.0,N,A*2B
$IIXDR,C,,C,AIRTEMP,A,0.1,D,HEEL,A,3.3,D,TRIM,P,,B,BARO,A,,D,RUDDER*06
$GPGLC,9960,,,,,,,,,,,,*75
$GPZDA,194928,30,07,2015,03,00*46
$SDDBT,13.2,f,4.0,M,2.2,F*32
$SDVLW,,N,0.0,N,452.7,N,0.0,N*70
$GPGGA,194929,2255.1901,S,04310.2460,W,1,12,0.70,4,M,-5.6,M,,*7C
$GPGLL,2255.1901,S,04310.2459,W,194929,A,A*43
$GPGSA,A,3,03,05,07,09,19,23,27,28,30,67,68,78,1.20,0.70,1.00*0A
$GPGSV,3,1,12,03,08,019,31,05,11,223,44,07,50,182,47,09,63,112,41*7E
$GPGSV,3,2,12,19,19,094,34,23,33,071,37,27,09,123,38,28,38,331,43*72
$GPGSV,3,3,12,30,45,236,44,67,45,017,33,68,74,232,38,78,43,186,30*78
$SDHDG,282.3,,,22.5,W*19
$GPRMC,194929,A,2255.1901,S,04310.2460,W,0.1,309.0,300715,22.6,W,A*3A
$GPVTG,309.0,T,331.6,M,0.1,N,0.2,K,A*2D
$GPAAM,,,,N,*38
$GPAPB,,,,,,,,,,,,,,,N*26
$GPBOD,,T,,M,,*47
$GPRMB,,,,,,,,,,,,,,N*04
$GPXTE,,,,,N,N*5E
$SDDPT,4.0,0.0,*7F
$SDMTW,23.7,C*02
$SDVHW,259.7,T,282.3,M,0.0,N,0.0,K*40
$WIMWD,172.5,T,195.1,M,1.7,N,0.8,M*59
$WIMWV,267.4,R,1.8,N,A*2D
$WIMWV,272.7,T,1.7,N,A*23
$IIXDR,C,,C,AIRTEMP,A,0.0,D,HEEL,A,3.2,D,TRIM,P,,B,BARO,A,,D,RUDDER*06
$GPGLC,9960,,,,,,,,,,,,*75
$GPZDA,194930,30,07,2015,03,00*4F
$SDDBT,13.1,f,4.0,M,2.1,F*32
$SDVLW,,N,0.0,N,452.7,N,0.0,N*70
$GPGGA,194931,2255.1896,S,04310.2460,W,1,12,0.70,4,M,-5.6,M,,*7A
$GPGLL,2255.1896,S,04310.2460,W,194931,A,A*4F
$GPGSA,A,3,03,05,07,09,19,23,27,28,30,67,68,78,1.20,0.70,1.00*0A
$GPGSV,3,1,12,03,08,019,30,05,11,223,44,07,50,182,47,09,63,112,42*7C
$GPGSV,3,2,12,19,19,094,34,23,33,071,37,27,09,123,38,28,38,331,42*73
$GPGSV,3,3,12,30,45,236,45,67,45,017,32,68,74,232,38,78,43,186,30*78
$GPVTG,322.0,T,344.6,M,0.1,N,0.2,K,A*26
$SDHDG,282.6,,,22.5,W*1C
$GPAAM,,,,N,*38
$GPAPB,,,,,,,,,,,,,,,N*26
$GPBOD,,T,,M,,*47
$GPRMB,,,,,,,,,,,,,,N*04
$GPXTE,,,,,N,N*5E
$SDDPT,4.0,0.0,*7F
$SDMTW,23.7,C*02
$SDVHW,260.0,T,282.6,M,0.0,N,0.0,K*48
$WIMWD,172.9,T,195.5,M,1.4,N,0.7,M*5D
$WIMWV,254.2,R,1.6,N,A*25
$WIMWV,273.1,T,1.4,N,A*27
$IIXDR,C,,C,AIRTEMP,A,-1.8,D,HEEL,A,4.2,D,TRIM,P,,B,BARO,A,,D,RUDDER*25
$GPGLC,9960,,,,,,,,,,,,*75
$GPRMC,194932,A,2255.1894,S,04310.2459,W,0.1,322.0,300715,22.6,W,A*3E
$GPZDA,194932,30,07,2015,03,00*4D
$SDDBT,13.1,f,4.0,M,2.1,F*32
$SDVLW,,N,0.0,N,452.7,N,0.0,N*70
$GPGGA,194933,2255.1893,S,04310.2459,W,1,12,0.70,4,M,-5.6,M,,*77
$GPGLL,2255.1893,S,04310.2459,W,194933,A,A*42
$GPGSA,A,3,03,05,07,09,19,23,27,28,30,67,68,78,1.20,0.70,1.00*0A
$GPGSV,3,1,12,03,08,019,29,05,11,223,43,07,50,182,47,09,63,112,42*73
$GPGSV,3,2,12,19,19,094,33,23,33,071,37,27,09,123,37,28,38,331,43*7A
$GPGSV,3,3,12,30,45,236,46,67,45,017,32,68,74,232,39,78,43,186,30*7A
$GPVTG,322.0,T,344.6,M,0.1,N,0.2,K,A*26
$GPAPB,,,,,,,,,,,,,,,N*26
$SDHDG,282.9,,,22.5,W*13
$GPBOD,,T,,M,,*47
$GPRMB,,,,,,,,,,,,,,N*04
$GPXTE,,,,,N,N*5E
$SDDPT,4.0,0.0,*7F
$SDMTW,23.7,C*02
$SDVHW,260.4,T,283.0,M,0.0,N,0.0,K*4B
$WIMWD,166.8,T,189.4,M,2.0,N,1.0,M*54
$WIMWV,223.7,R,2.2,N,A*27
$WIMWV,265.7,T,2.0,N,A*21
$IIXDR,C,,C,AIRTEMP,A,-1.7,D,HEEL,A,3.5,D,TRIM,P,,B,BARO,A,,D,RUDDER*2A
$GPGLC,9960,,,,,,,,,,,,*75
$GPRMC,194934,A,2255.1892,S,04310.2460,W,0.3,337.0,300715,22.6,W,A*32
$GPZDA,194934,30,07,2015,03,00*4B
$GPAAM,,,,N,*38
$SDDBT,13.2,f,4.0,M,2.2,F*32
$SDVLW,,N,0.0,N,452.7,N,0.0,N*70
$GPGGA,194935,2255.1892,S,04310.2460,W,1,12,0.70,4,M,-5.6,M,,*7A
$GPGLL,2255.1892,S,04310.2460,W,194935,A,A*4F
$GPGSA,A,3,03,05,07,09,19,23,27,28,30,67,68,78,1.20,0.70,1.00*0A
$GPGSV,3,1,12,03,08,019,28,05,11,223,43,07,50,182,46,09,63,112,41*70
$GPGSV,3,2,12,19,19,094,34,23,33,071,37,27,09,123,37,28,38,331,43*7D
$GPGSV,3,3,12,30,45,236,46,67,45,017,34,68,74,232,38,78,43,186,30*7D
$GPVTG,337.0,T,359.6,M,0.1,N,0.2,K,A*2E
$GPAPB,,,,,,,,,,,,,,,N*26
$GPBOD,,T,,M,,*47
$SDHDG,284.6,,,22.5,W*1A
$GPRMB,,,,,,,,,,,,,,N*04
$GPXTE,,,,,N,N*5E
$SDDPT,4.0,0.0,*7F
$SDMTW,23.7,C*02
$SDVHW,262.2,T,284.8,M,0.0,N,0.0,K*40
$WIMWD,151.4,T,174.0,M,2.4,N,1.3,M*5D
$WIMWV,220.9,R,2.7,N,A*2F
$WIMWV,249.9,T,2.4,N,A*25
$IIXDR,C,,C,AIRTEMP,A,0.3,D,HEEL,A,2.8,D,TRIM,P,,B,BARO,A,,D,RUDDER*0E
$GPGLC,9960,,,,,,,,,,,,*75
$GPRMC,194936,A,2255.1892,S,04310.2459,W,0.0,329.0,300715,22.6,W,A*36
$GPZDA,194936,30,07,2015,03,00*49
$GPAAM,,,,N,*38
$SDDBT,13.2,f,4.0,M,2.2,F*32
$SDVLW,,N,0.0,N,452.7,N,0.0,N*70
$GPGGA,194937,2255.1894,S,04310.2460,W,1,12,0.70,3,M,-5.6,M,,*79
$GPGLL,2255.1894,S,04310.2460,W,194937,A,A*4B
$GPVTG,329.0,T,351.6,M,0.1,N,0.2,K,A*29
$GPAPB,,,,,,,,,,,,,,,N*26
$GPBOD,,T,,M,,*47
$GPRMB,,,,,,,,,,,,,,N*04
$GPXTE,,,,,N,N*5E
$SDDPT,4.0,0.0,*7F
$SDMTW,23.7,C*02
$SDHDG,285.4,,,22.5,W*19
$SDVHW,262.8,T,285.4,M,0.0,N,0.0,K*47
$WIMWD,147.0,T,169.6,M,2.4,N,1.2,M*55
$WIMWV,233.3,R,2.7,N,A*27
$WIMWV,244.2,T,2.4,N,A*23
$IIXDR,C,,C,AIRTEMP,A,0.2,D,HEEL,A,3.4,D,TRIM,P,,B,BARO,A,,D,RUDDER*02
$GPGLC,9960,,,,,,,,,,,,*75
$GPGSA,A,3,03,05,07,09,19,23,27,28,30,67,68,78,1.20,0.70,1.00*0A
$GPGSV,3,1,12,03,08,019,29,05,11,223,42,07,50,182,46,09,63,112,41*70
$GPGSV,3,2,12,19,19,094,33,23,33,071,38,27,09,123,38,28,38,331,43*7A
$GPGSV,3,3,12,30,45,236,46,67,45,017,34,68,74,232,38,78,43,186,29*75
$GPRMC,194938,A,2255.1895,S,04310.2459,W,0.3,347.0,300715,22.6,W,A*34
$GPZDA,194938,30,07,2015,03,00*47
$GPAAM,,,,N,*38
$SDDBT,13.3,f,4.0,M,2.2,F*33
$SDVLW,,N,0.0,N,452.7,N,0.0,N*70
$GPGGA,194939,2255.1896,S,04310.2459,W,1,12,0.70,3,M,-5.6,M,,*7F
$GPGLL,2255.1896,S,04310.2459,W,194939,A,A*4D
$GPVTG,347.0,T,9.6,M,0.2,N,0.4,K,A*2A
$GPAPB,,,,,,,,,,,,,,,N*26
$GPBOD,,T,,M,,*47
$GPRMB,,,,,,,,,,,,,,N*04
$GPXTE,,,,,N,N*5E
$SDDPT,4.0,0.0,*7F
$SDMTW,23.7,C*02
$SDVHW,262.0,T,284.6,M,0.0,N,0.0,K*4C
$WIMWD,158.2,T,180.8,M,2.3,N,1.2,M*57
$WIMWV,307.2,R,2.3,N,A*24
$WIMWV,255.4,T,2.3,N,A*22
$SDHDG,284.6,,,22.5,W*1A
$IIXDR,C,,C,AIRTEMP,A,-1.1,D,HEEL,A,3.7,D,TRIM,P,,B,BARO,A,,D,RUDDER*2E
$GPGLC,9960,,,,,,,,,,,,*75
$GPGSA,A,3,03,05,07,09,19,23,27,28,30,67,68,78,1.20,0.70,1.00*0A
$GPGSV,3,1,12,03,08,019,32,05,11,223,42,07,50,182,47,09,63,112,41*7B
$GPGSV,3,2,12,19,19,094,34,23,33,071,38,27,09,123,38,28,38,331,43*7D
$GPGSV,3,3,12,30,45,236,46,67,45,017,34,68,74,232,37,78,43,186,29*7A
$GPRMC,194940,A,2255.1897,S,04310.2458,W,0.1,12.0,300715,22.6,W,A*09
$GPZDA,194940,30,07,2015,03,00*48
$GPAAM,,,,N,*38
$SDDBT,13.2,f,4.0,M,2.2,F*32
$SDVLW,,N,0.0,N,452.7,N,0.0,N*70
$GPGGA,194941,2255.1897,S,04310.2458,W,1,12,0.70,3,M,-5.6,M,,*70
$GPGLL,2255.1897,S,04310.2458,W,194941,A,A*42
$GPVTG,11.0,T,33.6,M,0.2,N,0.4,K,A*23
$GPAPB,,,,,,,,,,,,,,,N*26
$GPBOD,,T,,M,,*47
$GPRMB,,,,,,,,,,,,,,N*04
$GPXTE,,,,,N,N*5E
$SDDPT,4.0,0.0,*7F
$SDMTW,23.7,C*02
$SDVHW,261.9,T,284.5,M,0.0,N,0.0,K*45
$WIMWD,165.6,T,188.2,M,1.9,N,1.0,M*54
$WIMWV,243.8,R,2.1,N,A*2D
$WIMWV,263.6,T,1.9,N,A*2C
$IIXDR,C,,C,AIRTEMP,A,0.8,D,HEEL,A,3.8,D,TRIM,P,,B,BARO,A,,D,RUDDER*04
$SDHDG,284.5,,,22.5,W*19
$GPGLC,9960,,,,,,,,,,,,*75
$GPGSA,A,3,03,05,07,09,19,23,27,28,30,67,68,78,1.20,0.70,1.00*0A
$GPGSV,3,1,12,03,08,019,33,05,11,223,43,07,50,182,46,09,63,112,41*7A
$GPGSV,3,2,12,19,19,094,33,23,33,071,39,27,09,123,38,28,38,331,43*7B
$GPGSV,3,3,12,30,45,236,46,67,45,017,35,68,74,232,38,78,43,186,29*74
$GPRMC,194942,A,2255.1895,S,04310.2458,W,0.4,57.0,300715,22.6,W,A*0D
$GPZDA,194942,30,07,2015,03,00*4A
$GPAAM,,,,N,*38
$SDVLW,,N,0.0,N,452.7,N,0.0,N*70
$GPGGA,194943,2255.1896,S,04310.2460,W,1,12,0.70,2,M,-5.6,M,,*79
$GPGLL,2255.1896,S,04310.2460,W,194943,A,A*4A
$GPVTG,57.0,T,79.6,M,0.2,N,0.4,K,A*2F
$GPAPB,,,,,,,,,,,,,,,N*26
$GPBOD,,T,,M,,*47
$GPRMB,,,,,,,,,,,,,,N*04
$GPXTE,,,,,N,N*5E
$SDDBT,13.2,f,4.0,M,2.2,F*32
$SDDPT,4.0,0.0,*7F
$SDMTW,23.7,C*02
$SDVHW,261.6,T,284.2,M,0.0,N,0.0,K*4D
$WIMWD,156.1,T,178.6,M,0.4,N,0.2,M*57
$WIMWV,233.1,R,0.5,N,A*25
$WIMWV,253.7,T,0.4,N,A*22
$IIXDR,C,,C,AIRTEMP,A,0.7,D,HEEL,A,3.3,D,TRIM,P,,B,BARO,A,,D,RUDDER*00
$SDHDG,284.2,,,22.5,W*1E
$GPGLC,9960,,,,,,,,,,,,*75
$GPGSA,A,3,03,05,07,09,19,23,27,28,30,67,68,78,1.20,0.70,1.00*0A
$GPRMC,194944,A,2255.1896,S,04310.2461,W,0.1,57.0,300715,22.6,W,A*07
$GPZDA,194944,30,07,2015,03,00*4C
$GPAAM,,,,N,*38
$SDVLW,,N,0.0,N,452.7,N,0.0,N*70
$GPGGA,194945,2255.1896,S,04310.2463,W,1,12,0.70,2,M,-5.6,M,,*7C
$GPGLL,2255.1896,S,04310.2463,W,194945,A,A*4F
$GPGSV,3,1,12,03,08,019,34,05,11,223,42,07,50,182,46,09,63,112,42*7F
$GPGSV,3,2,12,19,19,094,34,23,33,071,41,27,09,123,37,28,38,331,43*7C
$GPGSV,3,3,12,30,45,236,46,67,45,017,35,68,74,232,38,78,43,186,29*74
$GPVTG,55.0,T,77.6,M,0.3,N,0.5,K,A*23
$GPAPB,,,,,,,,,,,,,,,N*26
$GPBOD,,T,,M,,*47
$GPRMB,,,,,,,,,,,,,,N*04
$GPXTE,,,,,N,N*5E
$SDDBT,13.3,f,4.0,M,2.2,F*33
$SDDPT,4.0,0.0,*7F
$SDMTW,23.7,C*02
$SDVHW,260.8,T,283.4,M,0.0,N,0.0,K*43
$WIMWD,152.4,T,175.0,M,0.4,N,0.2,M*5D
$WIMWV,298.7,R,0.5,N,A*22
$WIMWV,250.6,T,0.4,N,A*20
$IIXDR,C,,C,AIRTEMP,A,0.1,D,HEEL,A,3.4,D,TRIM,P,,B,BARO,A,,D,RUDDER*01
$SDHDG,283.3,,,22.5,W*18
$GPGSA,A,3,03,05,07,09,19,23,27,28,30,67,68,78,1.20,0.70,1.00*0A
$GPRMC,194946,A,2255.1895,S,04310.2462,W,0.1,55.0,300715,22.6,W,A*07
$GPZDA,194946,30,07,2015,03,00*4E
$GPAAM,,,,N,*38
$SDVLW,,N,0.0,N,452.7,N,0.0,N*70
$GPGGA,194947,2255.1894,S,04310.2461,W,1,12,0.70,2,M,-5.6,M,,*7E
$GPGLC,9960,,,,,,,,,,,,*75
$GPGLL,2255.1894,S,04310.2461,W,194947,A,A*4D
$GPGSV,3,1,12,03,08,019,33,05,11,223,43,07,50,182,46,09,63,112,41*7A
$GPGSV,3,2,12,19,19,094,33,23,33,071,40,27,09,123,37,28,38,331,43*7A
$GPGSV,3,3,12,30,45,236,47,67,45,017,34,68,74,232,38,78,43,186,28*75
$GPVTG,75.0,T,97.6,M,0.1,N,0.2,K,A*2A
$GPAPB,,,,,,,,,,,,,,,N*26
$GPBOD,,T,,M,,*47
$GPRMB,,,,,,,,,,,,,,N*04
$GPXTE,,,,,N,N*5E
$SDDBT,13.2,f,4.0,M,2.2,F*32
$SDDPT,4.0,0.0,*7F
$SDMTW,23.7,C*02
$SDVHW,261.6,T,284.1,M,0.0,N,0.0,K*4E
$WIMWD,176.5,T,199.0,M,1.7,N,0.9,M*51
$WIMWV,266.5,R,1.9,N,A*2C
$WIMWV,274.6,T,1.7,N,A*24
$IIXDR,C,,C,AIRTEMP,A,-3.7,D,HEEL,A,2.9,D,TRIM,P,,B,BARO,A,,D,RUDDER*25
$SDHDG,284.3,,,22.5,W*1F
$GPGSA,A,3,03,05,07,09,19,23,27,28,30,67,68,78,1.20,0.70,1.00*0A
$GPRMC,194948,A,2255.1895,S,04310.2460,W,0.1,75.0,300715,22.6,W,A*09
$GPZDA,194948,30,07,2015,03,00*40
$GPAAM,,,,N,*38
$SDVLW,,N,0.0,N,452.7,N,0.0,N*70
$GPGGA,194949,2255.1897,S,04310.2459,W,1,12,0.70,1,M,-5.6,M,,*7B
$GPGLC,9960,,,,,,,,,,,,*75
$GPGLL,2255.1897,S,04310.2459,W,194949,A,A*4B
$GPGSV,3,1,12,03,08,019,29,05,11,223,43,07,50,182,46,09,63,112,40*70
$GPGSV,3,2,12,19,19,094,34,23,33,071,40,27,09,123,37,28,38,331,43*7D
$GPGSV,3,3,12,30,45,236,47,67,45,017,34,68,74,232,39,78,43,186,29*75
$GPVTG,75.0,T,97.6,M,0.2,N,0.4,K,A*2F
$GPAPB,,,,,,,,,,,,,,,N*26
$GPBOD,,T,,M,,*47
$GPRMB,,,,,,,,,,,,,,N*04
$GPXTE,,,,,N,N*5E
$SDDBT,13.1,f,4.0,M,2.1,F*32
$SDDPT,4.0,0.0,*7F
$SDMTW,23.7,C*02
$SDVHW,261.5,T,284.1,M,0.0,N,0.0,K*4D
$WIMWD,176.4,T,199.0,M,2.1,N,1.1,M*5C
$WIMWV,298.4,R,2.0,N,A*26
$WIMWV,275.6,T,2.1,N,A*20
$IIXDR,C,,C,AIRTEMP,A,-4.8,D,HEEL,A,2.3,D,TRIM,P,,B,BARO,A,,D,RUDDER*27
$SDHDG,284.0,,,22.5,W*1C
$GPGSA,A,3,03,05,07,09,19,23,27,28,30,67,68,78,1.20,0.70,1.00*0A
$GPRMC,194950,A,2255.1898,S,04310.2459,W,0.1,75.0,300715,22.6,W,A*07
$GPZDA,194950,30,07,2015,03,00*49
$SDVLW,,N,0.0,N,452.7,N,0.0,N*70
$GPGGA,194951,2255.1898,S,04310.2457,W,1,12,0.70,1,M,-5.6,M,,*73
$GPGLC,9960,,,,,,,,,,,,*75
$GPGLL,2255.1898,S,04310.2457,W,194951,A,A*43
$GPGSV,3,1,12,03,08,019,33,05,11,223,43,07,50,182,47,09,63,112,41*7B
$GPGSV,3,2,12,19,19,094,38,23,33,071,40,27,09,123,37,28,38,331,44*76
$GPGSV,3,3,12,30,45,236,47,67,45,017,34,68,74,232,40,78,43,186,28*7A
$GPVTG,75.0,T,97.6,M,0.2,N,0.4,K,A*2F
$GPAAM,,,,N,*38
$GPAPB,,,,,,,,,,,,,,,N*26
$GPBOD,,T,,M,,*47
$GPRMB,,,,,,,,,,,,,,N*04
$GPXTE,,,,,N,N*5E
$SDDBT,13.3,f,4.0,M,2.2,F*33
$SDMTW,23.7,C*02
$SDVHW,260.1,T,282.7,M,0.0,N,0.0,K*48
$WIMWD,167.8,T,190.4,M,2.0,N,1.0,M*5D
$WIMWV,210.6,R,2.2,N,A*26
$IIXDR,C,,C,AIRTEMP,A,-3.1,D,HEEL,A,3.4,D,TRIM,P,,B,BARO,A,,D,RUDDER*2F
$SDHDG,282.7,,,22.5,W*1D
$GPGSA,A,3,03,05,07,09,19,23,27,28,30,67,68,78,1.20,0.70,1.00*0A
$GPRMC,194952,A,2255.1896,S,04310.2456,W,0.1,75.0,300715,22.6,W,A*04
$GPZDA,194952,30,07,2015,03,00*4B
$SDDPT,4.1,0.0,*7E
$SDVLW,,N,0.0,N,452.7,N,0.0,N*70
$WIMWV,261.0,T,1.9,N,A*28
$GPGGA,194953,2255.1894,S,04310.2457,W,1,12,0.70,1,M,-5.6,M,,*7D
$GPGLC,9960,,,,,,,,,,,,*75
$GPGLL,2255.1894,S,04310.2457,W,194953,A,A*4D
$GPGSV,3,1,12,03,08,019,35,05,11,223,44,07,50,182,47,09,63,112,42*79
$GPGSV,3,2,12,19,19,094,39,23,32,071,40,27,09,123,36,28,38,331,43*70
$GPGSV,3,3,12,30,45,236,47,67,45,017,34,68,74,232,39,78,43,186,27*7B
$GPAAM,,,,N,*38
$GPAPB,,,,,,,,,,,,,,,N*26
$GPBOD,,T,,M,,*47
$GPRMB,,,,,,,,,,,,,,N*04
$GPXTE,,,,,N,N*5E
$SDDBT,13.2,f,4.0,M,2.2,F*32
$SDMTW,23.7,C*02
$SDVHW,261.5,T,284.0,M,0.0,N,0.0,K*4C
$WIMWD,162.3,T,184.9,M,1.8,N,0.9,M*58
$WIMWV,271.8,R,2.0,N,A*2D
$IIXDR,C,,C,AIRTEMP,A,0.9,D,HEEL,A,3.7,D,TRIM,P,,B,BARO,A,,D,RUDDER*0A
$SDHDG,284.1,,,22.5,W*1D
$GPGSA,A,3,03,05,07,09,19,23,27,28,30,67,68,78,1.20,0.70,1.00*0A
$GPRMC,194954,A,2255.1896,S,04310.2457,W,0.1,76.0,300715,22.6,W,A*00
$GPVTG,76.0,T,98.6,M,0.1,N,0.2,K,A*26
$GPZDA,194954,30,07,2015,03,00*4D
$SDVLW,,N,0.0,N,452.7,N,0.0,N*70
$WIMWV,261.8,T,1.7,N,A*2E
$GPGGA,194955,2255.1897,S,04310.2456,W,1,12,0.70,1,M,-5.6,M,,*79
$GPGLC,9960,,,,,,,,,,,,*75
$GPGLL,2255.1897,S,04310.2456,W,194955,A,A*49
$GPGSV,3,1,12,03,08,019,34,05,11,223,44,07,50,182,46,09,63,112,42*79
$GPGSV,3,2,12,19,19,094,40,23,32,071,41,27,09,123,38,28,38,331,44*76
$GPGSV,3,3,12,30,45,236,47,67,45,017,34,68,74,232,40,78,43,186,28*7A
$GPAAM,,,,N,*38
$GPAPB,,,,,,,,,,,,,,,N*26
$GPRMB,,,,,,,,,,,,,,N*04
$GPXTE,,,,,N,N*5E
$SDDBT,13.3,f,4.0,M,2.2,F*33
$SDDPT,4.0,0.0,*7F
$SDMTW,23.7,C*02
$SDVHW,261.6,T,284.1,M,0.0,N,0.0,K*4E
$WIMWD,164.6,T,187.2,M,1.7,N,0.9,M*5C
$WIMWV,268.8,R,1.8,N,A*2E
$IIXDR,C,,C,AIRTEMP,A,-3.8,D,HEEL,A,3.4,D,TRIM,P,,B,BARO,A,,D,RUDDER*26
$SDHDG,284.1,,,22.5,W*1D
$GPGSA,A,3,03,05,07,09,19,23,27,28,30,67,68,78,1.20,0.70,1.00*0A
$GPRMC,194956,A,2255.1898,S,04310.2454,W,0.1,94.0,300715,22.6,W,A*03
$GPVTG,94.0,T,116.6,M,0.1,N,0.2,K,A*1D
$GPZDA,194956,30,07,2015,03,00*4F
$GPBOD,,T,,M,,*47
$SDVLW,,N,0.0,N,452.7,N,0.0,N*70
$WIMWV,261.4,T,1.5,N,A*20
$GPGGA,194957,2255.1896,S,04310.2452,W,1,12,0.70,1,M,-5.6,M,,*7E
$GPGLC,9960,,,,,,,,,,,,*75
$GPGLL,2255.1896,S,04310.2452,W,194957,A,A*4E
$GPGSV,3,1,12,03,08,019,34,05,11,223,44,07,50,182,47,09,63,112,41*7B
$GPGSV,3,2,12,19,19,094,40,23,32,071,41,27,09,123,37,28,38,331,44*79
$GPGSV,3,3,12,30,45,236,48,67,45,017,34,68,74,232,40,78,43,186,28*75
$GPAAM,,,,N,*38
$GPAPB,,,,,,,,,,,,,,,N*26
$GPRMB,,,,,,,,,,,,,,N*04
$GPXTE,,,,,N,N*5E
$SDDBT,13.3,f,4.0,M,2.2,F*33
$SDDPT,4.0,0.0,*7F
$SDMTW,23.7,C*02
$SDVHW,260.8,T,283.3,M,0.0,N,0.0,K*44
$WIMWD,150.6,T,173.2,M,1.5,N,0.8,M*53
$WIMWV,147.8,R,1.7,N,A*2F
$IIXDR,C,,C,AIRTEMP,A,-2.5,D,HEEL,A,3.3,D,TRIM,P,,B,BARO,A,,D,RUDDER*2D
$SDHDG,283.3,,,22.5,W*18
$GPGSA,A,3,03,05,07,09,19,23,27,28,30,67,68,78,1.20,0.70,1.00*0A
$GPRMC,194958,A,2255.1894,S,04310.2452,W,0.2,97.0,300715,22.6,W,A*07
$GPVTG,97.0,T,119.6,M,0.2,N,0.4,K,A*14
$GPZDA,194958,30,07,2015,03,00*41
$GPBOD,,T,,M,,*47
$SDVLW,,N,0.0,N,452.7,N,0.0,N*70
$WIMWV,235.3,T,1.6,N,A*25
$GPGGA,194959,2255.1893,S,04310.2452,W,1,12,0.70,0,M,-5.6,M,,*74
$GPGLC,9960,,,,,,,,,,,,*75
$GPGLL,2255.1893,S,04310.2452,W,194959,A,A*45
$GPGSV,3,1,12,03,08,019,36,05,11,223,44,07,50,182,47,09,63,112,42*7A
$GPGSV,3,2,12,19,19,094,39,23,32,071,41,27,09,123,36,28,38,331,43*71
$GPGSV,3,3,12,30,45,236,47,67,45,017,34,68,74,232,40,78,43,186,28*7A
$GPAAM,,,,N,*38
$GPAPB,,,,,,,,,,,,,,,N*26
$GPXTE,,,,,N,N*5E
$SDDPT,4.0,0.0,*7F
$SDMTW,23.7,C*02
$SDVHW,260.7,T,283.3,M,0.0,N,0.0,K*4B
$WIMWD,150.4,T,173.0,M,1.3,N,0.7,M*5A
$WIMWV,262.7,R,1.4,N,A*27
$IIXDR,C,,C,AIRTEMP,A,-4.5,D,HEEL,A,3.1,D,TRIM,P,,B,BARO,A,,D,RUDDER*29
$SDHDG,283.4,,,22.5,W*1F
$GPGSA,A,3,03,05,07,09,19,23,27,28,30,67,68,78,1.20,0.70,1.00*0A
$GPRMC,195000,A,2255.1892,S,04310.2453,W,0.1,71.0,300715,22.6,W,A*0E
$GPZDA,195000,30,07,2015,03,00*44
$GPRMB,,,,,,,,,,,,,,N*04
$SDDBT,13.4,f,4.0,M,2.2,F*34
$SDVLW,,N,0.0,N,452.7,N,0.0,N*70
$WIMWV,255.4,T,1.3,N,A*21
$GPGGA,195001,2255.1893,S,04310.2454,W,1,12,0.70,0,M,-5.6,M,,*77
$GPGLC,9960,,,,,,,,,,,,*75
$GPGLL,2255.1893,S,04310.2454,W,195001,A,A*46
$GPGSV,3,1,12,03,08,019,34,05,11,223,44,07,50,182,47,09,63,112,42*78
$GPGSV,3,2,12,19,19,094,39,23,32,071,41,27,09,124,35,28,38,331,43*75
$GPGSV,3,3,12,30,45,236,47,67,45,017,34,68,74,232,39,78,43,186,28*74
$GPVTG,71.0,T,93.6,M,0.1,N,0.2,K,A*2A
$GPAAM,,,,N,*38
$GPAPB,,,,,,,,,,,,,,,N*26
$GPBOD,,T,,M,,*47
$SDDPT,4.0,0.0,*7F
$SDMTW,23.7,C*02
$SDVHW,261.7,T,284.2,M,0.0,N,0.0,K*4C
$WIMWD,170.3,T,192.9,M,1.4,N,0.7,M*5E
$WIMWV,334.3,R,1.4,N,A*21
$IIXDR,C,,C,AIRTEMP,A,-2.4,D,HEEL,A,2.7,D,TRIM,P,,B,BARO,A,,D,RUDDER*29
$SDHDG,284.3,,,22.5,W*1F
$GPGSA,A,3,03,05,07,09,19,23,27,28,30,67,68,78,1.20,0.70,1.00*0A
$GPRMC,195002,A,2255.1891,S,04310.2455,W,0.1,68.0,300715,22.6,W,A*01
$GPZDA,195002,30,07,2015,03,00*46
$GPRMB,,,,,,,,,,,,,,N*04
$GPXTE,,,,,N,N*5E
$SDVLW,,N,0.0,N,452.7,N,0.0,N*70
$WIMWV,275.8,T,1.8,N,A*24
$GPGGA,195003,2255.1891,S,04310.2454,W,1,12,0.70,1,M,-5.6,M,,*76
$GPGLC,9960,,,,,,,,,,,,*75
$GPGLL,2255.1891,S,04310.2453,W,195003,A,A*41
$GPGSV,3,1,12,03,08,019,34,05,11,223,44,07,50,182,47,09,63,112,42*78
$GPGSV,3,2,12,19,19,094,38,23,32,071,41,27,09,124,35,28,38,331,43*74
$GPGSV,3,3,12,30,45,236,46,67,45,017,34,68,74,232,40,78,43,186,28*7B
$GPVTG,42.0,T,64.6,M,0.1,N,0.2,K,A*22
$GPAAM,,,,N,*38
$GPAPB,,,,,,,,,,,,,,,N*26
$GPBOD,,T,,M,,*47
$SDDBT,13.3,f,4.0,M,2.2,F*33
$SDDPT,4.0,0.0,*7F
$SDMTW,23.7,C*02
$SDVHW,262.3,T,284.9,M,0.0,N,0.0,K*40
$WIMWD,182.5,T,205.1,M,2.7,N,1.4,M*52
$WIMWV,344.6,R,2.7,N,A*23
$IIXDR,C,,C,AIRTEMP,A,-3.0,D,HEEL,A,3.7,D,TRIM,P,,B,BARO,A,,D,RUDDER*2D
$SDHDG,285.1,,,22.5,W*1C
$GPGSA,A,3,03,05,07,09,19,23,27,28,30,67,68,78,1.20,0.70,1.00*0A
$GPRMC,195004,A,2255.1890,S,04310.2452,W,0.0,70.0,300715,22.6,W,A*09
$GPZDA,195004,30,07,2015,03,00*40
$GPRMB,,,,,,,,,,,,,,N*04
$GPXTE,,,,,N,N*5E
$SDVLW,,N,0.0,N,452.7,N,0.0,N*70
$WIMWV,287.4,T,3.1,N,A*2E
$GPGGA,195005,2255.1889,S,04310.2450,W,1,12,0.70,1,M,-5.6,M,,*7D
$GPGLC,9960,,,,,,,,,,,,*75
$GPGLL,2255.1889,S,04310.2450,W,195005,A,A*4D
$GPGSV,3,1,12,03,08,019,30,05,11,223,44,07,50,182,47,09,63,112,41*7F
$GPGSV,3,2,12,19,19,094,38,23,32,071,40,27,09,124,34,28,38,331,42*75
$GPGSV,3,3,12,30,45,236,46,67,45,017,35,68,74,232,40,78,43,186,28*7A
$GPVTG,90.0,T,112.6,M,0.1,N,0.2,K,A*1D
$GPAAM,,,,N,*38
$GPAPB,,,,,,,,,,,,,,,N*26
$GPBOD,,T,,M,,*47
$SDDBT,13.2,f,4.0,M,2.2,F*32
$SDDPT,4.0,0.0,*7F
$SDMTW,23.7,C*02
$SDVHW,263.0,T,285.6,M,0.0,N,0.0,K*4C
$WIMWD,192.7,T,215.3,M,3.0,N,1.6,M*56
$WIMWV,303.8,R,3.0,N,A*28
$IIXDR,C,,C,AIRTEMP,A,-4.0,D,HEEL,A,3.0,D,TRIM,P,,B,BARO,A,,D,RUDDER*2D
$SDHDG,285.6,,,22.5,W*1B
$GPGSA,A,3,03,05,07,09,19,23,27,28,30,67,68,78,1.20,0.70,1.00*0A
$GPRMC,195006,A,2255.1888,S,04310.2450,W,0.0,86.0,300715,22.6,W,A*09
$GPZDA,195006,30,07,2015,03,00*42
$GPXTE,,,,,N,N*5E
$SDVLW,,N,0.0,N,452.7,N,0.0,N*70
$WIMWV,290.6,T,2.7,N,A*2D
$GPGGA,195007,2255.1888,S,04310.2451,W,1,12,0.70,1,M,-5.6,M,,*7F
$GPGLC,9960,,,,,,,,,,,,*75
$GPGLL,2255.1888,S,04310.2451,W,195007,A,A*4F
$GPGSV,3,1,12,03,08,019,30,05,11,223,43,07,50,182,47,09,63,112,41*78
$GPGSV,3,2,12,19,19,094,39,23,32,071,40,27,09,124,32,28,38,331,43*73
$GPGSV,3,3,12,30,46,235,46,67,45,017,34,68,74,232,41,78,43,186,28*7A
$GPVTG,86.0,T,108.6,M,0.2,N,0.4,K,A*14
$GPAAM,,,,N,*38
$GPAPB,,,,,,,,,,,,,,,N*26
$GPBOD,,T,,M,,*47
$GPRMB,,,,,,,,,,,,,,N*04
$SDDBT,13.3,f,4.0,M,2.2,F*33
$SDDPT,4.0,0.0,*7F
$SDMTW,23.7,C*02
$SDVHW,263.0,T,285.6,M,0.0,N,0.0,K*4C
$WIMWV,246.2,R,2.6,N,A*25
$IIXDR,C,,C,AIRTEMP,A,-2.7,D,HEEL,A,2.7,D,TRIM,P,,B,BARO,A,,D,RUDDER*2A
$SDHDG,285.5,,,22.5,W*18
$GPGSA,A,3,03,05,07,09,19,23,27,28,30,67,68,78,1.20,0.70,1.00*0A
$GPZDA,195008,30,07,2015,03,00*4C
$GPXTE,,,,,N,N*5E
$SDVLW,,N,0.0,N,452.7,N,0.0,N*70
$WIMWD,177.5,T,200.1,M,2.1,N,1.1,M*5E
$WIMWV,276.9,T,2.1,N,A*2C
$GPGGA,195009,2255.1884,S,04310.2450,W,1,12,0.70,1,M,-5.6,M,,*7C
$GPGLC,9960,,,,,,,,,,,,*75
$GPGLL,2255.1884,S,04310.2450,W,195009,A,A*4C
$GPGSV,3,1,12,03,08,019,30,05,11,223,44,07,50,182,47,09,63,112,42*7C
$GPGSV,3,2,12,19,19,094,40,23,32,071,37,27,09,124,31,28,38,331,42*7F
$GPGSV,3,3,12,30,46,235,46,67,45,017,34,68,74,232,40,78,43,186,28*7B
$GPRMC,195009,A,2255.1884,S,04310.2450,W,0.1,89.0,300715,22.6,W,A*04
$GPVTG,89.0,T,111.6,M,0.1,N,0.2,K,A*16
$GPAPB,,,,,,,,,,,,,,,N*26
$GPBOD,,T,,M,,*47
$GPRMB,,,,,,,,,,,,,,N*04
$SDDBT,13.2,f,4.0,M,2.2,F*32
$SDDPT,4.0,0.0,*7F
$SDMTW,23.7,C*02
$SDVHW,262.2,T,284.8,M,0.0,N,0.0,K*40
$WIMWV,116.4,R,2.1,N,A*22
$IIXDR,C,,C,AIRTEMP,A,-4.2,D,HEEL,A,3.2,D,TRIM,P,,B,BARO,A,,D,RUDDER*2D
$SDHDG,284.7,,,22.5,W*1B
$GPGSA,A,3,03,05,07,09,19,23,27,28,30,67,68,78,1.20,0.70,1.00*0A
$GPZDA,195010,30,07,2015,03,00*45
$GPAAM,,,,N,*38
$GPXTE,,,,,N,N*5E
$SDVLW,,N,0.0,N,452.7,N,0.0,N*70
$WIMWD,138.6,T,161.1,M,1.9,N,1.0,M*58
$WIMWV,233.4,T,1.9,N,A*2B
$GPGGA,195011,2255.1882,S,04310.2449,W,1,12,0.70,0,M,-5.6,M,,*7A
$GPGLC,9960,,,,,,,,,,,,*75
$GPGLL,2255.1882,S,04310.2449,W,195011,A,A*4B
$GPGSV,3,1,12,03,08,019,28,05,11,223,44,07,50,182,47,09,63,112,41*76
$GPGSV,3,2,12,19,19,094,41,23,32,071,36,27,09,124,29,28,38,331,42*76
$GPGSV,3,3,12,30,46,235,47,67,45,017,34,68,74,232,40,78,43,186,28*7A
$GPRMC,195011,A,2255.1882,S,04310.2449,W,0.1,98.0,300715,22.6,W,A*03
$GPVTG,98.0,T,120.6,M,0.2,N,0.4,K,A*11
$GPAPB,,,,,,,,,,,,,,,N*26
$SDDBT,13.2,f,4.0,M,2.2,F*32
$SDDPT,4.0,0.0,*7F
$SDMTW,23.7,C*02
$SDVHW,261.6,T,284.1,M,0.0,N,0.0,K*4E
$WIMWV,250.3,R,1.9,N,A*2F
$IIXDR,C,,C,AIRTEMP,A,-3.0,D,HEEL,A,3.2,D,TRIM,P,,B,BARO,A,,D,RUDDER*28
$SDHDG,284.0,,,22.5,W*1C
$GPGSA,A,3,03,05,07,09,19,23,27,28,30,67,68,78,1.20,0.70,1.00*0A
$GPZDA,195012,30,07,2015,03,00*47
$GPAAM,,,,N,*38
$GPBOD,,T,,M,,*47
$GPRMB,,,,,,,,,,,,,,N*04
$GPXTE,,,,,N,N*5E
$SDVLW,,N,0.0,N,452.7,N,0.0,N*70
$WIMWD,138.5,T,161.1,M,1.7,N,0.9,M*5D
$WIMWV,235.0,T,1.7,N,A*27
$GPGGA,195013,2255.1882,S,04310.2451,W,1,12,0.70,0,M,-5.6,M,,*71
$GPGLC,9960,,,,,,,,,,,,*75
$GPGLL,2255.1882,S,04310.2451,W,195013,A,A*40
$GPGSV,3,1,12,03,08,019,30,05,11,223,45,07,50,182,47,09,63,112,42*7D
$GPGSV,3,2,12,19,19,094,41,23,32,071,37,27,09,124,33,28,38,331,42*7C
$GPGSV,3,3,12,30,46,235,47,67,45,017,34,68,74,232,40,78,43,186,28*7A
$GPRMC,195013,A,2255.1882,S,04310.2451,W,0.2,106.0,300715,22.6,W,A*3D
$GPVTG,106.0,T,128.6,M,0.1,N,0.2,K,A*2A
$GPAPB,,,,,,,,,,,,,,,N*26
$SDDBT,13.3,f,4.0,M,2.2,F*33
$SDDPT,4.0,0.0,*7F
$SDMTW,23.7,C*02
$SDVHW,261.2,T,283.8,M,0.0,N,0.0,K*44
$WIMWV,28.1,R,1.6,N,A*1F
$IIXDR,C,,C,AIRTEMP,A,-2.0,D,HEEL,A,4.0,D,TRIM,P,,B,BARO,A,,D,RUDDER*2C
$SDHDG,283.6,,,22.5,W*1D
$GPGSA,A,3,03,05,07,09,19,23,27,28,30,67,68,78,1.20,0.70,1.00*0A
$GPZDA,195014,30,07,2015,03,00*41
$GPAAM,,,,N,*38
$GPBOD,,T,,M,,*47
$GPRMB,,,,,,,,,,,,,,N*04
$GPXTE,,,,,N,N*5E
$SDVLW,,N,0.0,N,452.7,N,0.0,N*70
$WIMWD,176.5,T,199.0,M,1.6,N,0.8,M*51
$WIMWV,278.9,T,1.6,N,A*26
$GPGGA,195015,2255.1881,S,04310.2453,W,1,12,0.70,-1,M,-5.6,M,,*5A
$GPGLC,9960,,,,,,,,,,,,*75
$GPGLL,2255.1881,S,04310.2453,W,195015,A,A*47
$GPGSV,3,1,12,03,08,019,29,05,11,223,45,07,50,182,47,09,63,112,42*75
$GPGSV,3,2,12,19,19,094,41,23,32,071,39,27,09,124,33,28,38,331,42*72
$GPGSV,3,3,12,30,46,235,47,67,45,017,34,68,74,232,40,78,43,186,28*7A
$GPRMC,195015,A,2255.1881,S,04310.2453,W,0.1,106.0,300715,22.6,W,A*39
$GPVTG,106.0,T,128.6,M,0.1,N,0.2,K,A*2A
$GPAPB,,,,,,,,,,,,,,,N*26
$SDDBT,13.2,f,4.0,M,2.2,F*32
$SDDPT,4.0,0.0,*7F
$SDMTW,23.7,C*02
$SDVHW,260.8,T,283.4,M,0.0,N,0.0,K*43
$WIMWV,329.6,R,1.4,N,A*28
$IIXDR,C,,C,AIRTEMP,A,-4.1,D,HEEL,A,3.2,D,TRIM,P,,B,BARO,A,,D,RUDDER*2E
$SDHDG,283.3,,,22.5,W*18
$GPGSA,A,3,03,05,07,09,19,23,27,28,30,67,68,78,1.20,0.70,1.00*0A
$GPZDA,195016,30,07,2015,03,00*43
$GPAAM,,,,N,*38
$GPBOD,,T,,M,,*47
$GPRMB,,,,,,,,,,,,,,N*04
$GPXTE,,,,,N,N*5E
$SDVLW,,N,0.0,N,452.7,N,0.0,N*70
$WIMWD,199.9,T,222.5,M,1.3,N,0.7,M*50
$WIMWV,298.1,T,1.3,N,A*25
$GPGLC,9960,,,,,,,,,,,,*75
$GPGLL,2255.1880,S,04310.2453,W,195017,A,A*44
$GPGSV,3,1,12,03,08,019,32,05,11,223,45,07,50,182,47,09,63,112,42*7F
$GPGSV,3,2,12,19,19,094,40,23,32,071,39,27,09,124,34,28,38,331,43*75
$GPGSV,3,3,12,30,46,235,47,67,45,017,34,68,74,232,40,78,43,186,29*7B
$GPRMC,195017,A,2255.1880,S,04310.2453,W,0.1,113.0,300715,22.6,W,A*3E
$GPVTG,113.0,T,135.6,M,0.1,N,0.2,K,A*22
$GPAPB,,,,,,,,,,,,,,,N*26
$SDDBT,13.2,f,4.0,M,2.2,F*32
$SDDPT,4.0,0.0,*7F
$SDMTW,23.7,C*02
$SDVHW,260.7,T,283.2,M,0.0,N,0.0,K*4A
$WIMWV,26.8,R,1.2,N,A*1C
$IIXDR,C,,C,AIRTEMP,A,-4.5,D,HEEL,A,3.2,D,TRIM,P,,B,BARO,A,,D,RUDDER*2A
$SDHDG,283.6,,,22.5,W*1D
$GPGGA,195018,2255.1880,S,04310.2451,W,1,12,0.70,-1,M,-5.6,M,,*54
$GPGSA,A,3,03,05,07,09,19,23,27,28,30,67,68,78,1.20,0.70,1.00*0A
$GPZDA,195018,30,07,2015,03,00*4D
$GPAAM,,,,N,*38
$GPBOD,,T,,M,,*47
$GPRMB,,,,,,,,,,,,,,N*04
$GPXTE,,,,,N,N*5E
$SDVLW,,N,0.0,N,452.7,N,0.0,N*70
$WIMWD,221.8,T,244.3,M,1.2,N,0.6,M*57
$WIMWV,319.8,T,1.2,N,A*25
$GPGLC,9960,,,,,,,,,,,,*75
$GPGLL,2255.1881,S,04310.2449,W,195019,A,A*40
$GPGSV,3,1,12,03,08,019,34,05,11,223,45,07,50,182,47,09,63,112,42*79
$GPGSV,3,2,12,19,19,094,40,23,32,071,40,27,09,124,35,28,38,331,42*7B
$GPGSV,3,3,12,30,46,235,47,67,45,017,34,68,74,232,40,78,43,186,29*7B
$GPRMC,195019,A,2255.1881,S,04310.2449,W,0.0,108.0,300715,22.6,W,A*31
$GPVTG,108.0,T,130.6,M,0.2,N,0.4,K,A*28
$GPAPB,,,,,,,,,,,,,,,N*26
$SDDBT,13.2,f,4.0,M,2.2,F*32
$SDMTW,23.7,C*02
$WIMWV,327.2,R,1.4,N,A*22
$IIXDR,C,,C,AIRTEMP,A,-2.0,D,HEEL,A,3.2,D,TRIM,P,,B,BARO,A,,D,RUDDER*29
$SDHDG,284.1,,,22.5,W*1D
$GPGGA,195020,2255.1882,S,04310.2446,W,1,12,0.70,-1,M,-5.6,M,,*5B
$GPGSA,A,3,03,05,07,09,19,23,27,28,30,67,68,78,1.20,0.70,1.00*0A
$GPZDA,195020,30,07,2015,03,00*46
$GPAAM,,,,N,*38
$GPBOD,,T,,M,,*47
$GPRMB,,,,,,,,,,,,,,N*04
$GPXTE,,,,,N,N*5E
$SDDPT,4.0,0.0,*7F
$SDVLW,,N,0.0,N,452.7,N,0.0,N*70
$SDVHW,261.3,T,283.9,M,0.0,N,0.0,K*44
$WIMWD,225.3,T,247.9,M,1.8,N,0.9,M*54
$WIMWV,323.7,T,1.8,N,A*29
$GPGLC,9960,,,,,,,,,,,,*75
$GPGSV,3,1,12,03,08,019,33,05,11,223,45,07,50,182,47,09,63,112,42*7E
$GPGSV,3,2,12,19,19,094,40,23,32,071,39,27,09,124,33,28,38,331,42*73
$GPGSV,3,3,12,30,46,235,48,67,44,017,35,68,74,232,40,78,43,186,29*74
$GPRMC,195021,A,2255.1883,S,04310.2444,W,0.1,108.0,300715,22.6,W,A*34
$GPVTG,108.0,T,130.6,M,0.1,N,0.2,K,A*2D
$GPAPB,,,,,,,,,,,,,,,N*26
$SDDBT,13.2,f,4.0,M,2.2,F*32
$SDMTW,23.7,C*02
$WIMWV,301.5,R,2.1,N,A*27
$IIXDR,C,,C,AIRTEMP,A,-3.5,D,HEEL,A,3.5,D,TRIM,P,,B,BARO,A,,D,RUDDER*2A
$SDHDG,283.0,,,22.5,W*1B
$GPGGA,195022,2255.1883,S,04310.2443,W,1,12,0.70,-1,M,-5.6,M,,*5D
$GPGLL,2255.1883,S,04310.2443,W,195022,A,A*40
$GPGSA,A,3,03,05,07,09,19,23,27,28,30,67,68,78,1.20,0.70,1.00*0A
$GPZDA,195022,30,07,2015,03,00*44
$GPAAM,,,,N,*38
$GPBOD,,T,,M,,*47
$GPRMB,,,,,,,,,,,,,,N*04
$GPXTE,,,,,N,N*5E
$SDDPT,4.0,0.0,*7F
$SDVLW,,N,0.0,N,452.7,N,0.0,N*70
$WIMWD,221.4,T,244.0,M,2.6,N,1.3,M*5B
$GPGLC,9960,,,,,,,,,,,,*75
$GPGSV,3,1,12,03,08,019,32,05,11,223,46,07,50,182,47,09,63,112,43*7D
$GPGSV,3,2,12,19,19,094,40,23,32,071,40,27,09,124,31,28,38,331,42*7F
$GPGSV,3,3,12,30,46,235,47,67,44,017,32,68,74,234,40,78,43,186,30*72
$GPRMC,195023,A,2255.1883,S,04310.2443,W,0.1,108.0,300715,22.6,W,A*31
$GPVTG,108.0,T,130.6,M,0.1,N,0.2,K,A*2D
$GPAPB,,,,,,,,,,,,,,,N*26
$SDDBT,13.4,f,4.1,M,2.2,F*35
$SDMTW,23.7,C*02
$SDVHW,260.4,T,283.0,M,0.0,N,0.0,K*4B
$WIMWV,277.8,R,3.1,N,A*2B
$WIMWV,319.3,T,3.1,N,A*2F
$IIXDR,C,,C,AIRTEMP,A,-2.9,D,HEEL,A,3.1,D,TRIM,P,,B,BARO,A,,D,RUDDER*23
$SDHDG,283.1,,,22.5,W*1A
$GPGGA,195024,2255.1884,S,04310.2443,W,1,12,0.70,0,M,-5.6,M,,*70
$GPGLL,2255.1884,S,04310.2442,W,195024,A,A*40
$GPGSA,A,3,03,05,07,09,19,23,27,28,30,67,68,78,1.20,0.70,1.00*0A
$GPZDA,195024,30,07,2015,03,00*42
$GPAAM,,,,N,*38
$GPBOD,,T,,M,,*47
$GPRMB,,,,,,,,,,,,,,N*04
$GPXTE,,,,,N,N*5E
$SDDPT,4.0,0.0,*7F
$SDVLW,,N,0.0,N,452.7,N,0.0,N*70
$WIMWD,218.5,T,241.1,M,3.5,N,1.8,M*5D
$GPGLC,9960,,,,,,,,,,,,*75
$GPGSV,3,1,12,03,08,019,33,05,11,223,46,07,49,181,47,09,63,112,42*76
$GPGSV,3,2,12,19,19,094,40,23,32,071,40,27,09,124,30,28,38,331,42*7E
$GPGSV,3,3,12,30,46,235,46,67,44,017,34,68,74,234,40,78,43,185,30*76
$GPRMC,195025,A,2255.1885,S,04310.2445,W,0.3,116.0,300715,22.6,W,A*3A
$GPVTG,116.0,T,138.6,M,0.3,N,0.5,K,A*2F
$GPAPB,,,,,,,,,,,,,,,N*26
$SDDBT,13.3,f,4.0,M,2.2,F*33
$SDMTW,23.7,C*02
$SDVHW,261.1,T,283.7,M,0.0,N,0.0,K*48
$WIMWV,352.8,R,3.7,N,A*2B
$WIMWV,318.0,T,3.7,N,A*2B
$IIXDR,C,,C,AIRTEMP,A,-3.3,D,HEEL,A,3.5,D,TRIM,P,,B,BARO,A,,D,RUDDER*2C
$SDHDG,283.6,,,22.5,W*1D
$GPGGA,195026,2255.1886,S,04310.2447,W,1,12,0.70,0,M,-5.6,M,,*74
$GPGLL,2255.1886,S,04310.2447,W,195026,A,A*45
$GPGSA,A,3,03,05,07,09,19,23,27,28,30,67,68,78,1.20,0.70,1.00*0A
$GPZDA,195026,30,07,2015,03,00*40
$GPAAM,,,,N,*38
$GPBOD,,T,,M,,*47
$GPRMB,,,,,,,,,,,,,,N*04
$GPXTE,,,,,N,N*5E
$SDDPT,4.0,0.0,*7F
$SDVLW,,N,0.0,N,452.7,N,0.0,N*70
$WIMWD,221.3,T,243.9,M,3.5,N,1.8,M*5B
$GPGLC,9960,,,,,,,,,,,,*75
$GPGSV,3,1,12,03,08,019,34,05,11,223,46,07,49,181,47,09,63,112,42*71
$GPGSV,3,2,12,19,19,094,41,23,32,071,40,27,09,124,35,28,38,331,42*7A
$GPGSV,3,3,12,30,46,235,46,67,44,017,35,68,74,234,40,78,43,185,30*77
$GPRMC,195027,A,2255.1886,S,04310.2446,W,0.1,111.0,300715,22.6,W,A*3D
$GPVTG,111.0,T,133.6,M,0.1,N,0.2,K,A*26
$GPAPB,,,,,,,,,,,,,,,N*26
$SDDBT,13.2,f,4.0,M,2.2,F*32
$SDMTW,23.7,C*02
$SDVHW,260.7,T,283.3,M,0.0,N,0.0,K*4B
$WIMWV,309.8,R,3.2,N,A*20
$WIMWV,313.7,T,3.2,N,A*22
$IIXDR,C,,C,AIRTEMP,A,-3.6,D,HEEL,A,3.1,D,TRIM,P,,B,BARO,A,,D,RUDDER*2D
$SDHDG,283.0,,,22.5,W*1B
$GPGGA,195028,2255.1885,S,04310.2448,W,1,12,0.70,-1,M,-5.6,M,,*5A
$GPGSA,A,3,03,05,07,09,19,23,27,28,30,67,68,78,1.20,0.70,1.00*0A
$GPZDA,195028,30,07,2015,03,00*4E
$GPBOD,,T,,M,,*47
$GPRMB,,,,,,,,,,,,,,N*04
$GPXTE,,,,,N,N*5E
$SDDPT,4.0,0.0,*7F
$SDVLW,,N,0.0,N,452.7,N,0.0,N*70
$WIMWD,212.2,T,234.7,M,2.9,N,1.5,M*54
$GPGLC,9960,,,,,,,,,,,,*75
$GPGLL,2255.1882,S,04310.2451,W,195029,A,A*49
$GPGSV,3,1,12,03,08,019,35,05,11,223,46,07,49,181,48,09,63,111,41*7F
$GPGSV,3,2,12,19,19,094,40,23,32,071,40,27,09,124,35,28,38,331,42*7B
$GPGSV,3,3,12,30,46,235,45,67,44,017,35,68,74,234,39,78,43,185,30*7A
$GPVTG,115.0,T,137.6,M,0.3,N,0.5,K,A*23
$GPAAM,,,,N,*38
$GPAPB,,,,,,,,,,,,,,,N*26
$SDDBT,13.3,f,4.0,M,2.2,F*33
$SDMTW,23.7,C*02
$SDVHW,261.4,T,284.0,M,0.0,N,0.0,K*4D
$WIMWV,340.1,R,2.9,N,A*2E
$WIMWV,310.9,T,2.9,N,A*25
$IIXDR,C,,C,AIRTEMP,A,-3.7,D,HEEL,A,3.3,D,TRIM,P,,B,BARO,A,,D,RUDDER*2E
$SDHDG,284.4,,,22.5,W*18
