jjlDATE	jjlTIME	ImuSensor_GyroX	ImuSensor_GyroY	ImuSensor_GyroZ	ImuSensor_Pitch	ImuSensor_Roll	ImuSensor_Yaw	ImuSensor_LinearAccX	ImuSensor_LinearAccY	ImuSensor_LinearAccZ	Hb_Z	Dn_Z	RideHeight	Db_Z	Heel	Trim	HeightSensor_Distance	LKF_ride_hgh	LKF_ride_hgh_Position	LKF_ride_hgh_Velocity	LKF_ride_hgh_Acceleration	LKF_ride_hgh_PositionError	LKF_ride_hgh_VelocityError	LKF_ride_hgh_AccelerationError	
20160318.000000	112600.075940	0.082237	-0.056151	1.892248	-6.216007	-2.832726	255.259336	-0.046435	-0.083582	0.083350	-0.622839	-0.608595	0.607810	-0.622839	2.832726	-6.216007	7043.000000	0.021630	-0.607810	0.008217	0.029340	0.050763	0.088001	0.044140	
20160318.000000	112600.172769	-0.133625	0.090055	1.661135	-6.207804	-2.843768	255.423042	-0.025565	-0.312046	-0.103219	-0.614158	-0.599940	0.608002	-0.614158	2.843768	-6.207804	6864.000000	0.019600	-0.608002	-0.003007	-0.013856	0.050743	0.087981	0.044140	
20160318.000000	112600.272533	0.430675	0.162664	1.498474	-6.197923	-2.820080	255.573839	-0.035506	-0.211041	-0.297879	-0.595333	-0.581354	0.603207	-0.595333	2.820080	-6.197923	7010.000000	0.016259	-0.603207	-0.009670	-0.047115	0.050706	0.087978	0.044140	
20160318.000000	112600.369857	0.522621	-0.323714	1.454301	-6.190003	-2.779330	255.718653	-0.079983	0.141183	-0.182823	-0.593700	-0.579903	0.597530	-0.593700	2.779330	-6.190003	7129.000000	0.016120	-0.597530	-0.016319	-0.070044	0.050623	0.087990	0.044140	
20160318.000000	112600.467288	0.527661	-0.027828	1.485666	-6.192821	-2.736254	255.865228	-0.194912	-0.004069	0.062467	-0.608485	-0.594752	0.596916	-0.608485	2.736254	-6.192821	6945.000000	0.019456	-0.596916	-0.017119	-0.056189	0.050664	0.088045	0.044141	
20160318.000000	112600.567273	0.463758	-0.398872	1.543788	-6.198759	-2.704346	256.018710	-0.087201	-0.135674	-0.278032	-0.611149	-0.597518	0.598896	-0.611149	2.704346	-6.198759	6710.000000	0.019921	-0.598896	-0.023282	-0.060785	0.050715	0.088080	0.044141	
20160318.000000	112600.665101	0.411607	-0.211466	1.573142	-6.210408	-2.678476	256.180742	-0.042981	-0.036651	-0.163369	-0.584503	-0.571146	0.591368	-0.584503	2.678476	-6.210408	6663.000000	0.016217	-0.591368	-0.005349	-0.011174	0.050778	0.088037	0.044140	
20160318.000000	112600.761929	0.439364	0.015971	1.779436	-6.223478	-2.639725	256.351545	-0.012204	-0.043519	-0.047925	-0.576767	-0.563602	0.583825	-0.576767	2.639725	-6.223478	6833.000000	0.017573	-0.583825	-0.000766	-0.013033	0.050781	0.087992	0.044140	
20160318.000000	112600.862060	0.677681	-0.480017	1.680047	-6.234253	-2.590763	256.519356	-0.015259	-0.071281	-0.066248	-0.578142	-0.565149	0.578297	-0.578142	2.590763	-6.234253	6910.000000	0.016264	-0.578297	-0.003221	-0.030620	0.050752	0.087958	0.044140	
20160318.000000	112600.958553	0.472557	-0.304972	1.791080	-6.243837	-2.548471	256.687535	0.081071	-0.156955	0.053434	-0.590434	-0.577511	0.577629	-0.590434	2.548471	-6.243837	6869.000000	0.019309	-0.577629	-0.003650	-0.024645	0.050833	0.087931	0.044140	
20160318.000000	112601.058196	0.602117	-0.393879	1.430572	-6.261191	-2.497919	256.846023	0.031757	-0.205963	-0.005466	-0.590434	-0.577690	0.579998	-0.590434	2.497919	-6.261191	6633.000000	0.016483	-0.579998	-0.019091	-0.064280	0.050763	0.087899	0.044140	
20160318.000000	112601.153552	0.971461	-0.323017	1.172653	-6.274773	-2.420419	256.972641	-0.004021	-0.179409	-0.057635	-0.570148	-0.557831	0.578634	-0.570148	2.420419	-6.274773	6448.000000	0.016094	-0.578634	-0.029816	-0.086058	0.050816	0.087882	0.044140	
20160318.000000	112601.254807	0.835048	-0.147801	0.995395	-6.280472	-2.330817	257.073352	0.003338	-0.164250	0.084557	-0.554246	-0.542379	0.572444	-0.554246	2.330817	-6.280472	6444.000000	0.017848	-0.572444	-0.031770	-0.088867	0.050909	0.087834	0.044139	
20160318.000000	112601.350833	0.713622	0.075194	1.052577	-6.281197	-2.258325	257.175573	0.062181	-0.140483	-0.008449	-0.553902	-0.542316	0.565557	-0.553902	2.258325	-6.281197	6504.000000	0.017929	-0.565557	-0.027880	-0.076065	0.050782	0.087784	0.044139	
20160318.000000	112601.450819	0.593954	0.340249	1.258493	-6.274089	-2.194926	257.288879	0.016680	0.008752	-0.159088	-0.559060	-0.547690	0.561480	-0.559060	2.194926	-6.274089	6883.000000	0.016118	-0.561480	-0.032524	-0.083977	0.050751	0.087771	0.044139	
20160318.000000	112601.548368	0.629542	0.606884	1.420463	-6.257478	-2.136223	257.415490	-0.157569	-0.019486	-0.695044	-0.591637	-0.580293	0.568136	-0.591637	2.136223	-6.257478	7268.000000	0.019395	-0.568136	-0.060235	-0.145189	0.050863	0.087767	0.044139	
20160318.000000	112601.644901	0.138201	0.347785	1.300438	-6.234548	-2.108088	257.547955	0.004262	0.009606	-0.121873	-0.624730	-0.613302	0.582866	-0.624730	2.108088	-6.234548	7457.000000	0.015981	-0.582866	-0.084530	-0.157924	0.050776	0.087735	0.044139	
20160318.000000	112601.742710	0.074617	0.216901	1.348733	-6.211919	-2.109594	257.684900	0.025205	0.092368	-0.136441	-0.640976	-0.629462	0.603625	-0.640976	2.109594	-6.211919	7563.000000	0.016099	-0.603625	-0.105157	-0.142621	0.050789	0.087730	0.044139	
20160318.000000	112601.843262	0.168851	-0.428355	1.371943	-6.199506	-2.115469	257.822392	-0.006768	0.052775	0.038404	-0.650087	-0.638506	0.619416	-0.650087	2.115469	-6.199506	7571.000000	0.019361	-0.619416	-0.113251	-0.110671	0.050868	0.087725	0.044139	
20160318.000000	112601.941295	-0.003530	-0.477377	1.155813	-6.213853	-2.135889	257.955990	0.090214	-0.051329	0.280106	-0.650087	-0.638472	0.629620	-0.650087	2.123189	-6.202598	7467.000000	0.020880	-0.629620	-0.098364	-0.027687	0.050852	0.087721	0.044139	
20160318.000000	112602.040953	-0.655294	-0.442685	1.340519	-6.264156	-2.186908	258.075300	0.113367	-0.199310	0.473173	-0.641836	-0.629953	0.634111	-0.641836	2.186908	-6.264156	7274.000000	0.016126	-0.634111	-0.066144	0.072941	0.050800	0.087713	0.044139	
20160318.000000	112602.139159	-0.802058	-1.415437	1.073500	-6.356104	-2.262295	258.193865	0.109862	-0.358707	0.460251	-0.625246	-0.613072	0.630938	-0.625246	2.262295	-6.356104	7118.000000	0.016470	-0.630938	-0.029255	0.151158	0.050775	0.087702	0.044139	
20160318.000000	112602.235500	-0.347141	-1.206895	1.122556	-6.473149	-2.314114	258.312553	0.200240	-0.232477	0.097662	-0.611837	-0.599416	0.623968	-0.611837	2.314114	-6.473149	6944.000000	0.019518	-0.623968	-0.001995	0.169477	0.050840	0.087708	0.044139	
20160318.000000	112602.332747	-0.173256	-1.588298	1.221960	-6.602203	-2.333163	258.432471	0.106539	-0.180170	-0.061866	-0.596881	-0.584343	0.613547	-0.596881	2.333163	-6.602203	6865.000000	0.017228	-0.613547	0.017027	0.146201	0.050836	0.087710	0.044139	
20160318.000000	112602.432345	-0.221503	-1.422175	0.903472	-6.740735	-2.364261	258.553891	0.018241	-0.052297	-0.147012	-0.590090	-0.577319	0.604692	-0.590090	2.364261	-6.740735	6697.000000	0.019396	-0.604692	0.021938	0.100106	0.050867	0.087692	0.044139	
20160318.000000	112602.529913	-0.112147	-1.260439	0.624265	-6.870545	-2.396546	258.640129	0.170140	0.231268	-0.295382	-0.582268	-0.569408	0.596761	-0.582268	2.382072	-6.808996	6568.000000	0.019536	-0.596761	0.015288	0.032813	0.050837	0.087696	0.044139	
20160318.000000	112602.629998	0.039108	-0.772240	0.415949	-6.963795	-2.401587	258.693541	0.146054	-0.191722	-0.315010	-0.565506	-0.552523	0.587916	-0.565506	2.401587	-6.963795	6619.000000	0.016377	-0.587916	-0.009421	-0.078005	0.050796	0.087700	0.044139	
20160318.000000	112602.727185	0.114436	-0.436855	-0.008477	-6.992541	-2.398225	258.705836	0.189952	-0.201253	-0.248243	-0.565506	-0.552502	0.581141	-0.565506	2.398225	-6.992541	6699.000000	0.016109	-0.581141	-0.025049	-0.126722	0.050744	0.087683	0.044139	
20160318.000000	112602.826537	0.301655	0.256972	-0.220996	-6.994128	-2.372658	258.707974	0.162491	-0.150527	-0.243165	-0.571695	-0.558668	0.579341	-0.571695	2.386300	-7.007529	6653.000000	0.019217	-0.579341	-0.048478	-0.176716	0.050789	0.087691	0.044139	
20160318.000000	112602.923660	0.429784	0.541902	-0.044389	-6.972268	-2.354676	258.706273	0.241471	-0.067229	-0.167239	-0.575821	-0.562924	0.579681	-0.575821	2.354676	-6.972268	6719.000000	0.019332	-0.579681	-0.067733	-0.190280	0.050807	0.087720	0.044139	
20160318.000000	112603.023055	0.264990	0.684090	0.176513	-6.860575	-2.296733	258.705972	0.132719	-0.079721	-0.076333	-0.577368	-0.564702	0.579798	-0.577368	2.313579	-6.901976	6754.000000	0.019265	-0.579798	-0.073827	-0.170007	0.050742	0.087737	0.044140	
20160318.000000	112603.120084	0.161184	0.667332	0.107413	-6.818005	-2.283991	258.708199	0.079019	0.014096	-0.029910	-0.579002	-0.566536	0.580933	-0.579002	2.283991	-6.818005	6727.000000	0.019247	-0.580933	-0.078206	-0.142507	0.050756	0.087772	0.044140	
20160318.000000	112603.219226	0.152742	0.979484	0.162929	-6.729590	-2.259202	258.725076	0.006250	-0.034247	-0.142162	-0.579002	-0.566736	0.582528	-0.579002	2.259202	-6.729590	6647.000000	0.016103	-0.582528	-0.083443	-0.133103	0.050695	0.087804	0.044140	
20160318.000000	112603.317453	0.122245	0.831410	0.706312	-6.644620	-2.233433	258.761495	-0.104402	-0.044657	-0.126939	-0.574876	-0.562839	0.583745	-0.574876	2.233433	-6.644620	6723.000000	0.017315	-0.583745	-0.088261	-0.126387	0.050720	0.087821	0.044140	
20160318.000000	112603.415932	0.207253	1.080213	0.981592	-6.554077	-2.226657	258.827352	0.018029	-0.099380	-0.174293	-0.571352	-0.559469	0.583921	-0.571352	2.226657	-6.554077	6972.000000	0.016162	-0.583921	-0.094358	-0.126881	0.050789	0.087837	0.044140	
20160318.000000	112603.514438	-0.398279	1.157784	0.695776	-6.452231	-2.233093	258.901896	-0.030129	-0.169747	-0.010006	-0.577884	-0.566044	0.585593	-0.577884	2.233093	-6.452231	7289.000000	0.016138	-0.585593	-0.096923	-0.115189	0.050746	0.087808	0.044140	
20160318.000000	112603.611201	-0.177625	0.759773	0.488371	-6.352594	-2.246839	258.962309	0.023970	-0.160946	0.051909	-0.626535	-0.614417	0.595409	-0.626535	2.246839	-6.352594	8059.000000	0.016444	-0.595409	-0.098033	-0.081894	0.050726	0.087800	0.044140	
20160318.000000	112603.710848	-0.129876	0.817688	0.618579	-6.271760	-2.262365	259.017490	0.044139	-0.249313	0.113454	-0.677679	-0.665251	0.619978	-0.677679	2.262365	-6.271760	8094.000000	0.016101	-0.619978	-0.107774	-0.050343	0.050801	0.087797	0.044140	
20160318.000000	112603.809063	-0.045324	0.490534	0.531690	-6.208241	-2.267199	259.073997	0.059499	-0.338834	0.048048	-0.692722	-0.680255	0.644497	-0.692722	2.267199	-6.208241	7843.000000	0.018067	-0.644497	-0.115741	-0.025004	0.050812	0.087775	0.044139	
20160318.000000	112603.907292	0.131148	-0.061248	0.091719	-6.184671	-2.254766	259.111248	0.134218	-0.429583	0.199613	-0.683353	-0.671027	0.660692	-0.683353	2.254766	-6.184671	7688.000000	0.018102	-0.660692	-0.110526	0.014627	0.050808	0.087769	0.044139	
20160318.000000	112604.002984	0.063903	-0.363360	-0.185400	-6.199927	-2.223047	259.115169	0.055340	-0.289781	0.216186	-0.660832	-0.648760	0.668178	-0.660832	2.223047	-6.199927	7366.000000	0.018663	-0.668178	-0.098512	0.037226	0.050770	0.087784	0.044140	
20160318.000000	112604.102136	0.290317	-0.655264	0.040492	-6.247735	-2.192887	259.110347	0.054533	-0.253408	0.157081	-0.633154	-0.621325	0.664598	-0.633154	2.192887	-6.247735	6930.000000	0.016100	-0.664598	-0.079465	0.058249	0.050699	0.087792	0.044140	
20160318.000000	112604.200711	0.056961	-0.657152	0.389742	-6.313919	-2.162078	259.126644	0.125900	-0.171122	0.046159	-0.595677	-0.584143	0.647965	-0.595677	2.162078	-6.313919	6762.000000	0.019362	-0.647965	-0.051506	0.064953	0.050772	0.087824	0.044140	
20160318.000000	112604.299933	0.142267	-0.698487	0.546199	-6.390342	-2.126530	259.169838	-0.043846	-0.087325	0.084529	-0.587425	-0.575998	0.630822	-0.587425	2.126530	-6.390342	6857.000000	0.016623	-0.630822	-0.027901	0.069784	0.050692	0.087823	0.044140	
20160318.000000	112604.398224	0.123363	-0.867884	0.814111	-6.478014	-2.107847	259.241924	0.094124	0.106607	0.091887	-0.589402	-0.577934	0.616765	-0.589402	2.107847	-6.478014	7016.000000	0.016723	-0.616765	-0.008432	0.072036	0.050682	0.087846	0.044140	
20160318.000000	112604.496417	0.125819	-1.134027	0.840564	-6.579309	-2.099199	259.330805	0.082691	-0.052729	0.124515	-0.603069	-0.591418	0.606655	-0.603069	2.099199	-6.579309	7130.000000	0.016197	-0.606655	0.005996	0.066689	0.050765	0.087864	0.044140	
20160318.000000	112604.594608	0.268274	-0.810015	1.076851	-6.689466	-2.093062	259.449418	0.178711	-0.156058	0.056985	-0.612868	-0.601035	0.603855	-0.612868	2.093062	-6.689466	7142.000000	0.018192	-0.603855	0.011522	0.058879	0.050789	0.087851	0.044140	
20160318.000000	112604.692906	0.411400	-0.981131	1.125680	-6.799189	-2.073989	259.572423	0.093348	-0.114249	0.122213	-0.613298	-0.601426	0.603255	-0.613298	2.085009	-6.743572	7129.000000	0.017155	-0.603255	0.009362	0.034802	0.050677	0.087844	0.044140	
20160318.000000	112604.789615	0.405298	-1.226253	0.776206	-6.898094	-2.044636	259.669063	0.134093	-0.073881	-0.137432	-0.613298	-0.601387	0.600968	-0.613298	2.044636	-6.898094	7140.000000	0.019816	-0.600968	0.017756	0.045995	0.050726	0.087917	0.044140	
20160318.000000	112604.889380	0.111372	-0.913181	0.468398	-6.978397	-2.014549	259.732618	0.140858	-0.301591	-0.013134	-0.613728	-0.601809	0.600813	-0.613728	2.031901	-6.939944	7159.000000	0.019574	-0.600813	0.014154	0.025260	0.050682	0.087953	0.044140	
20160318.000000	112604.983840	0.198382	-0.387778	0.244679	-7.042577	-1.978964	259.776113	0.078243	-0.165489	-0.140570	-0.615361	-0.603500	0.601452	-0.615361	1.978964	-7.042577	6956.000000	0.017124	-0.601452	0.008025	0.001069	0.050548	0.087993	0.044141	
20160318.000000	112605.085732	0.138525	-0.557902	0.471641	-7.083871	-1.950181	259.816343	0.060777	-0.005610	-0.215552	-0.597912	-0.586213	0.601282	-0.597912	1.965473	-7.067432	6821.000000	0.017010	-0.601282	-0.003788	-0.038236	0.050616	0.088051	0.044141	
20160318.000000	112605.181288	0.261136	0.250727	0.403956	-7.087643	-1.929646	259.864933	0.024203	-0.131485	-0.282052	-0.592325	-0.580744	0.599073	-0.592325	1.938628	-7.090827	6897.000000	0.018660	-0.599073	-0.021059	-0.092309	0.050712	0.088082	0.044141	
20160318.000000	112605.279396	0.134434	0.571287	0.559579	-7.073794	-1.923438	259.889405	0.024997	-0.052004	-0.357488	-0.592841	-0.581335	0.598396	-0.592841	1.923438	-7.073794	7065.000000	0.016479	-0.598396	-0.046759	-0.152581	0.050795	0.088079	0.044140	
20160318.000000	112605.380281	-0.141939	1.044158	0.076766	-6.973982	-1.933269	259.936226	0.021448	-0.164611	-0.267952	-0.600835	-0.589328	0.601219	-0.600835	1.925562	-7.016496	7236.000000	0.016067	-0.601219	-0.072405	-0.197278	0.050759	0.088022	0.044140	
20160318.000000	112605.476253	-0.386656	0.900497	0.147151	-6.923367	-1.948538	259.940092	0.075031	-0.220177	-0.265911	-0.612868	-0.601297	0.607482	-0.612868	1.948538	-6.923367	7246.000000	0.018935	-0.607482	-0.094937	-0.214747	0.050820	0.088000	0.044140	
20160318.000000	112605.573979	-0.470971	0.792210	-0.102369	-6.799263	-1.986921	259.936438	0.259300	-0.094136	0.043014	-0.621980	-0.610349	0.616113	-0.621980	1.986921	-6.799263	7036.000000	0.016180	-0.616113	-0.105867	-0.178709	0.050846	0.087961	0.044140	
20160318.000000	112605.674861	-0.373701	0.973137	0.063379	-6.624514	-2.028519	259.930482	0.013074	-0.291753	0.084923	-0.614588	-0.603039	0.619682	-0.614588	2.019063	-6.678653	6741.000000	0.019342	-0.619682	-0.104405	-0.136756	0.050912	0.087906	0.044140	
20160318.000000	112605.772492	-0.341015	0.652183	0.009792	-6.579299	-2.039930	259.930373	0.010699	-0.208455	0.098110	-0.591036	-0.579699	0.616133	-0.591036	2.039930	-6.579299	6476.000000	0.019750	-0.616133	-0.092010	-0.088629	0.050890	0.087871	0.044139	
20160318.000000	112605.872226	-0.163220	0.341313	0.083086	-6.488685	-2.066478	259.922081	0.086895	-0.260318	0.141879	-0.563444	-0.552309	0.603939	-0.563444	2.058346	-6.512714	6413.000000	0.019393	-0.603939	-0.073266	-0.054117	0.050836	0.087842	0.044140	
20160318.000000	112605.969851	-0.376649	0.375732	0.142114	-6.471136	-2.074657	259.927770	0.085369	-0.266428	0.277602	-0.553387	-0.542306	0.589272	-0.553387	2.074657	-6.471136	6613.000000	0.017630	-0.589272	-0.044570	0.004042	0.050826	0.087826	0.044140	
20160318.000000	112606.067669	-0.185306	0.201050	0.544676	-6.451344	-2.091914	259.966183	0.049322	-0.110451	0.066089	-0.553387	-0.542262	0.578030	-0.553387	2.091914	-6.451344	6771.000000	0.019330	-0.578030	-0.027349	0.020928	0.050807	0.087802	0.044140	
20160318.000000	112606.164658	-0.199148	-0.008058	1.184746	-6.441452	-2.118189	260.053398	0.044860	-0.001162	0.093048	-0.582010	-0.570595	0.573193	-0.582010	2.118189	-6.441452	7397.000000	0.016184	-0.573193	-0.013808	0.038684	0.050786	0.087781	0.044139	
20160318.000000	112606.264028	-0.220957	-0.092055	1.270238	-6.444494	-2.162355	260.181389	0.018807	0.157594	0.059278	-0.620347	-0.608489	0.579702	-0.620347	2.162355	-6.444494	7487.000000	0.019297	-0.579702	-0.011292	0.048802	0.050829	0.087779	0.044139	
20160318.000000	112606.363336	-0.322582	-0.234857	1.391163	-6.453949	-2.219736	260.323518	-0.025792	0.037545	0.126327	-0.643555	-0.631299	0.593758	-0.643555	2.219736	-6.453949	7621.000000	0.018730	-0.593758	-0.015165	0.055771	0.050734	0.087784	0.044140	
20160318.000000	112606.458726	-0.643278	-0.255688	1.288281	-6.466832	-2.282122	260.456516	0.000628	-0.103027	0.085418	-0.655073	-0.642475	0.610022	-0.655073	2.282122	-6.466832	7740.000000	0.016099	-0.610022	-0.018429	0.062188	0.050700	0.087804	0.044140	
20160318.000000	112606.558408	-0.532019	-0.100841	0.927497	-6.480358	-2.341225	260.566646	0.018169	-0.274204	0.098713	-0.665302	-0.652381	0.622556	-0.665302	2.341225	-6.480358	7768.000000	0.019260	-0.622556	-0.019847	0.066403	0.050778	0.087822	0.044140	
20160318.000000	112606.656215	-0.372111	-0.088208	0.775087	-6.488231	-2.371386	260.651593	-0.006847	-0.201598	-0.106380	-0.665302	-0.652252	0.635402	-0.665302	2.371386	-6.488231	7657.000000	0.019365	-0.635402	-0.029172	0.038522	0.050710	0.087851	0.044140	
20160318.000000	112606.755847	-0.384240	-0.049527	0.754565	-6.477795	-2.390114	260.735549	0.072487	-0.169964	-0.050619	-0.658167	-0.645109	0.642308	-0.658167	2.390114	-6.477795	7515.000000	0.019552	-0.642308	-0.034978	0.018418	0.050688	0.087898	0.044140	
20160318.000000	112606.852170	-0.083717	0.300069	0.864652	-6.449727	-2.396028	260.822668	-0.040773	-0.199337	-0.159401	-0.645962	-0.633004	0.645226	-0.645962	2.396028	-6.449727	7181.000000	0.015564	-0.645226	-0.043328	-0.016296	0.050638	0.087924	0.044140	
20160318.000000	112606.950690	-0.156999	0.727900	0.720748	-6.409255	-2.378699	260.892439	-0.032903	-0.177908	-0.059176	-0.617252	-0.604617	0.640403	-0.617252	2.378699	-6.409255	6678.000000	0.020706	-0.640403	-0.041797	-0.029360	0.050765	0.087971	0.044140	
20160318.000000	112607.049749	-0.092495	0.488831	0.715540	-6.358988	-2.375458	260.964347	-0.026392	-0.113721	-0.073516	-0.574016	-0.561756	0.625959	-0.574016	2.375458	-6.358988	6471.000000	0.017456	-0.625959	-0.034787	-0.044376	0.050708	0.087974	0.044140	
20160318.000000	112607.147603	-0.561382	0.435745	1.149913	-6.300658	-2.404640	261.049096	-0.068656	0.037736	-0.152886	-0.563873	-0.551633	0.607889	-0.563873	2.404640	-6.300658	6639.000000	0.017319	-0.607889	-0.023507	-0.048320	0.050729	0.087986	0.044140	
20160318.000000	112607.247168	-0.248150	0.530605	1.189464	-6.236469	-2.450654	261.154766	-0.075322	0.063302	0.009789	-0.570664	-0.558267	0.591965	-0.570664	2.450654	-6.236469	6898.000000	0.019483	-0.591965	-0.014892	-0.048237	0.050730	0.087986	0.044140	
20160318.000000	112607.343539	-0.270347	0.475187	0.967958	-6.179979	-2.488491	261.266829	-0.097623	-0.021093	0.109426	-0.592927	-0.580292	0.586506	-0.592927	2.488491	-6.179979	7272.000000	0.015638	-0.586506	-0.012080	-0.041634	0.050676	0.087983	0.044140	
20160318.000000	112607.439918	-0.415978	0.500391	0.874757	-6.130120	-2.518938	261.363660	-0.094401	-0.143031	0.067019	-0.625074	-0.612160	0.590637	-0.625074	2.518938	-6.130120	7214.000000	0.016118	-0.590637	-0.010868	-0.016498	0.050696	0.087993	0.044140	
20160318.000000	112607.540692	-0.240621	0.129353	0.624483	-6.101666	-2.551145	261.430145	-0.039924	-0.260174	0.044790	-0.620089	-0.607113	0.596767	-0.620089	2.551145	-6.101666	6758.000000	0.016227	-0.596767	-0.012495	-0.003992	0.050710	0.088007	0.044140	
20160318.000000	112607.637097	-0.598775	0.086660	0.076837	-6.093175	-2.576515	261.457979	-0.021825	-0.245958	-0.020152	-0.580893	-0.568087	0.596294	-0.580893	2.576515	-6.093175	6308.000000	0.019291	-0.596294	-0.009895	0.001182	0.050792	0.088012	0.044140	
20160318.000000	112607.737124	-0.439308	-0.055702	-0.127338	-6.100052	-2.593826	261.457063	-0.037646	-0.224392	0.025260	-0.542212	-0.529590	0.580599	-0.542212	2.593826	-6.100052	6258.000000	0.017202	-0.580599	0.004362	0.005838	0.050799	0.087990	0.044140	
20160318.000000	112607.835313	-0.228222	-0.258153	-0.290433	-6.124664	-2.598868	261.433943	-0.027180	-0.194244	0.115574	-0.542212	-0.529571	0.565096	-0.542212	2.596043	-6.110219	6692.000000	0.016851	-0.565096	0.018662	0.013643	0.050690	0.087988	0.044140	
20160318.000000	112607.931091	0.194117	-0.205969	-0.112999	-6.157305	-2.579156	261.416027	-0.070831	-0.172246	-0.043353	-0.575220	-0.562374	0.555025	-0.575220	2.579156	-6.157305	7202.000000	0.016475	-0.555025	0.026775	0.014529	0.050683	0.087987	0.044140	
20160318.000000	112608.031679	0.299138	0.088014	-0.036797	-6.172218	-2.563091	261.410113	-0.111597	-0.077038	-0.169898	-0.619057	-0.605961	0.563398	-0.619057	2.563091	-6.172218	7607.000000	0.019352	-0.563398	0.011184	-0.014794	0.050801	0.087994	0.044140	
20160318.000000	112608.131503	0.499187	-0.076087	-0.026694	-6.210471	-2.492442	261.399942	-0.050384	-0.245894	-0.375438	-0.641234	-0.628136	0.580828	-0.641234	2.517125	-6.199700	7542.000000	0.019198	-0.580828	-0.014588	-0.050746	0.050751	0.087987	0.044140	
20160318.000000	112608.229548	0.298326	0.528255	-0.100423	-6.220945	-2.468094	261.397183	-0.158241	-0.135570	-0.196307	-0.648282	-0.635305	0.604117	-0.648282	2.468094	-6.220945	7161.000000	0.016144	-0.604117	-0.054835	-0.108949	0.050808	0.087965	0.044140	
20160318.000000	112608.326338	0.185950	-0.063188	-0.317775	-6.235673	-2.428454	261.370866	0.009370	-0.040144	-0.005765	-0.634959	-0.622178	0.615282	-0.634959	2.437273	-6.234375	6839.000000	0.019279	-0.615282	-0.068373	-0.105886	0.050888	0.087947	0.044140	
20160318.000000	112608.425016	0.137269	-0.030992	-0.282599	-6.232437	-2.424158	261.353203	0.019798	0.006174	0.048470	-0.597310	-0.584839	0.612360	-0.597310	2.424158	-6.232437	6675.000000	0.019529	-0.612360	-0.062612	-0.078907	0.050780	0.087916	0.044140	
20160318.000000	112608.522618	0.151024	-0.015404	-0.436888	-6.224953	-2.406320	261.312632	-0.018415	-0.193589	0.167698	-0.578830	-0.566562	0.602074	-0.578830	2.406320	-6.224953	6776.000000	0.019566	-0.602074	-0.046270	-0.039327	0.050818	0.087919	0.044140	
20160318.000000	112608.621389	0.330961	0.467224	-0.476019	-6.211587	-2.328683	261.244337	0.031505	-0.313295	0.068189	-0.578830	-0.566744	0.593732	-0.578830	2.361722	-6.216347	6761.000000	0.016057	-0.593732	-0.030537	-0.007501	0.050820	0.087863	0.044140	
20160318.000000	112608.719401	0.366328	0.085683	-0.639166	-6.207339	-2.287322	261.217078	-0.073719	-0.395618	0.074547	-0.582440	-0.570628	0.588538	-0.582440	2.287322	-6.207339	6512.000000	0.017393	-0.588538	-0.020721	0.007187	0.050800	0.087832	0.044140	
20160318.000000	112608.819488	0.293741	0.381460	-0.498282	-6.197856	-2.215298	261.164349	-0.067198	-0.272107	-0.109495	-0.572469	-0.561012	0.583584	-0.572469	2.215298	-6.197856	6335.000000	0.016085	-0.583584	-0.021519	-0.016995	0.050876	0.087799	0.044139	
20160318.000000	112608.916882	0.323604	0.322435	-0.364283	-6.178039	-2.156696	261.117343	-0.148344	-0.123804	-0.112877	-0.544533	-0.533504	0.574512	-0.544533	2.156696	-6.178039	6525.000000	0.019192	-0.574512	-0.022323	-0.042675	0.050832	0.087758	0.044139	
20160318.000000	112609.016446	0.560330	0.458110	-0.237386	-6.147452	-2.111319	261.092222	-0.155661	-0.141032	-0.250042	-0.544533	-0.533708	0.566326	-0.544533	2.111319	-6.147452	6754.000000	0.020448	-0.566326	-0.028982	-0.078893	0.050867	0.087746	0.044139	
20160318.000000	112609.112184	0.445270	0.871780	-0.258611	-6.087558	-2.053141	261.071772	-0.117218	-0.009619	-0.372880	-0.580549	-0.569780	0.568631	-0.580549	2.053141	-6.087558	7001.000000	0.016077	-0.568631	-0.055441	-0.141062	0.050800	0.087733	0.044139	
20160318.000000	112609.212710	0.644438	0.909212	-0.306547	-6.005547	-1.978779	261.043673	-0.193830	-0.120632	-0.274916	-0.601780	-0.591252	0.578159	-0.601780	1.978779	-6.005547	7096.000000	0.019199	-0.578159	-0.081307	-0.173345	0.050846	0.087726	0.044139	
20160318.000000	112609.308187	0.403005	1.128859	-0.543489	-5.911032	-1.911427	261.005239	-0.139926	-0.305071	-0.097138	-0.609946	-0.599730	0.590160	-0.609946	1.911427	-5.911032	6807.000000	0.019340	-0.590160	-0.097672	-0.165043	0.050766	0.087722	0.044139	
20160318.000000	112609.407718	0.265090	1.104555	-0.774464	-5.820721	-1.852728	260.938126	-0.078837	-0.320561	0.020983	-0.585105	-0.575351	0.597579	-0.585105	1.852728	-5.820721	6385.000000	0.019491	-0.597579	-0.106943	-0.146628	0.050746	0.087747	0.044140	
20160318.000000	112609.506888	0.104697	0.723384	-1.161393	-5.741930	-1.800916	260.830933	-0.089886	-0.369760	0.388700	-0.548831	-0.539554	0.589859	-0.548831	1.800916	-5.741930	6261.000000	0.018707	-0.589859	-0.083483	-0.067797	0.050788	0.087771	0.044140	
20160318.000000	112609.603881	0.153253	0.508244	-1.244822	-5.685601	-1.758544	260.704602	0.040068	-0.273933	0.277163	-0.538172	-0.529165	0.572312	-0.538172	1.758544	-5.685601	6339.000000	0.016195	-0.572312	-0.035617	0.045353	0.050678	0.087789	0.044140	
20160318.000000	112609.702169	0.560552	-0.371313	-1.146279	-5.664390	-1.709290	260.575013	0.070235	-0.232582	0.284640	-0.544877	-0.536039	0.558684	-0.544877	1.709290	-5.664390	6631.000000	0.018185	-0.558684	0.005001	0.125074	0.050720	0.087826	0.044140	
20160318.000000	112609.801828	0.328838	-0.477681	-1.226774	-5.691665	-1.646130	260.448886	-0.165573	-0.099380	-0.027821	-0.569976	-0.561215	0.552825	-0.569976	1.646130	-5.691665	7006.000000	0.019212	-0.552825	0.033257	0.167895	0.050776	0.087846	0.044140	
20160318.000000	112609.898399	-0.203220	-0.580321	-1.339258	-5.758503	-1.613907	260.329249	-0.141493	-0.182149	-0.048091	-0.602210	-0.593329	0.556612	-0.602210	1.613907	-5.758503	7048.000000	0.016166	-0.556612	0.048222	0.180304	0.050678	0.087865	0.044140	
20160318.000000	112609.998253	-0.499393	-1.058039	-1.194264	-5.848584	-1.638608	260.213860	-0.073814	-0.111080	0.076783	-0.605820	-0.596731	0.565764	-0.605820	1.638608	-5.848584	6924.000000	0.019215	-0.565764	0.042373	0.141973	0.050760	0.087898	0.044140	
20160318.000000	112610.096761	-1.016776	-0.959104	-1.212133	-5.944823	-1.706287	260.101885	0.064547	-0.226513	0.193642	-0.595161	-0.585775	0.571878	-0.595161	1.706287	-5.944823	6910.000000	0.016159	-0.571878	0.041700	0.119276	0.050606	0.087948	0.044140	
20160318.000000	112610.193365	-0.636018	-0.842365	-1.228059	-6.028987	-1.771530	259.971900	-0.033680	-0.304218	-0.200195	-0.593958	-0.584242	0.573006	-0.593958	1.771530	-6.028987	6971.000000	0.016154	-0.573006	0.042675	0.097623	0.050647	0.088003	0.044141	
20160318.000000	112610.293101	-0.695865	-0.942981	-1.399270	-6.111205	-1.813123	259.834784	-0.071230	-0.284728	-0.061038	-0.596795	-0.586926	0.574340	-0.596795	1.795950	-6.067998	7080.000000	0.019290	-0.574340	0.040454	0.076524	0.050748	0.088033	0.044141	
20160318.000000	112610.390328	-0.510788	-0.669533	-1.328467	-6.192901	-1.837171	259.700981	0.016234	-0.274153	-0.254004	-0.608571	-0.598334	0.579694	-0.608571	1.837171	-6.192901	7102.000000	0.019391	-0.579694	0.024841	0.021878	0.050808	0.088044	0.044140	
20160318.000000	112610.486985	-0.303112	-0.898485	-1.255210	-6.267448	-1.831000	259.567724	-0.012661	-0.357187	-0.036713	-0.608571	-0.598281	0.585370	-0.608571	1.840105	-6.229181	6996.000000	0.016103	-0.585370	0.008091	-0.019405	0.050762	0.088012	0.044140	
20160318.000000	112610.585740	-0.291521	-0.689106	-1.361540	-6.328537	-1.826381	259.434364	-0.054338	-0.334632	0.234447	-0.607625	-0.597320	0.587859	-0.607625	1.825163	-6.298295	6841.000000	0.019254	-0.587859	0.007086	-0.007337	0.050786	0.087987	0.044140	
20160318.000000	112610.685948	-0.585345	-0.336141	-1.453790	-6.369948	-1.854455	259.285835	-0.012979	-0.208454	0.208355	-0.596021	-0.585687	0.584043	-0.596021	1.836574	-6.352553	6950.000000	0.019349	-0.584043	0.027869	0.055892	0.050775	0.087967	0.044140	
20160318.000000	112610.784243	-0.209888	0.207319	-1.390371	-6.376958	-1.882364	259.128556	0.078487	-0.161633	0.015065	-0.596021	-0.585520	0.580937	-0.596021	1.872605	-6.378662	7098.000000	0.019224	-0.580937	0.040897	0.081917	0.050673	0.087979	0.044140	
20160318.000000	112610.881297	-0.148787	0.333838	-1.241529	-6.365757	-1.885454	259.057324	-0.025404	-0.155332	-0.042377	-0.605562	-0.594963	0.581928	-0.605562	1.885454	-6.365757	7086.000000	0.016160	-0.581928	0.037080	0.054524	0.050637	0.088026	0.044141	
20160318.000000	112610.978538	-0.203089	0.406272	-1.064872	-6.293457	-1.875882	258.878742	-0.154801	-0.225945	-0.214829	-0.609086	-0.598552	0.585932	-0.609086	1.875319	-6.323185	6638.000000	0.019521	-0.585932	0.023342	0.010434	0.050753	0.088059	0.044141	
20160318.000000	112611.078705	-0.177964	0.813098	-0.912727	-6.258324	-1.876981	258.824790	-0.102489	-0.175842	-0.347380	-0.592755	-0.582394	0.588836	-0.592755	1.876981	-6.258324	6168.000000	0.019367	-0.588836	0.002800	-0.049859	0.050775	0.088065	0.044140	
20160318.000000	112611.176969	-0.225756	1.045280	-0.939006	-6.125480	-1.875372	258.673679	-0.147691	-0.366773	-0.323975	-0.547026	-0.537059	0.578848	-0.547026	1.874423	-6.173306	5986.000000	0.016103	-0.578848	-0.017682	-0.124695	0.050726	0.088049	0.044140	
20160318.000000	112611.272586	-0.359108	0.904464	-1.138265	-6.076316	-1.878342	258.616149	-0.064056	-0.313007	-0.220381	-0.520895	-0.511172	0.564069	-0.520895	1.878342	-6.076316	6225.000000	0.019346	-0.564069	-0.025311	-0.153536	0.050883	0.088022	0.044140	
20160318.000000	112611.371358	-0.126692	0.727738	-1.050081	-5.965481	-1.893615	258.507774	-0.118074	-0.402535	-0.223059	-0.518832	-0.509168	0.552201	-0.518832	1.893615	-5.965481	6466.000000	0.016989	-0.552201	-0.037569	-0.185999	0.050771	0.087980	0.044140	
20160318.000000	112611.471466	-0.206480	1.561451	-0.161827	-5.849552	-1.878788	258.432901	-0.082776	-0.512368	-0.119008	-0.546682	-0.537020	0.549359	-0.546682	1.878788	-5.849552	6636.000000	0.019287	-0.549359	-0.059462	-0.206435	0.050872	0.087953	0.044140	
20160318.000000	112611.568268	0.672427	0.797925	0.837959	-5.741327	-1.816676	258.458692	-0.214394	-0.337161	-0.118454	-0.567398	-0.557959	0.554097	-0.567398	1.816676	-5.741327	6482.000000	0.017984	-0.554097	-0.071251	-0.186628	0.050836	0.087906	0.044140	
20160318.000000	112611.666697	0.533985	0.918537	1.689358	-5.657401	-1.758416	258.595077	-0.109801	-0.050039	0.222279	-0.562412	-0.553302	0.556935	-0.562412	1.758416	-5.657401	6434.000000	0.018344	-0.556935	-0.061469	-0.107343	0.050837	0.087880	0.044140	
20160318.000000	112611.765573	0.300006	0.395719	1.854947	-5.592094	-1.742586	258.772341	-0.072127	0.082431	0.253223	-0.553043	-0.544103	0.554690	-0.553043	1.742586	-5.592094	6556.000000	0.018450	-0.554690	-0.038455	-0.017186	0.050695	0.087907	0.044140	
20160318.000000	112611.862796	-0.190372	0.007148	1.768795	-5.564670	-1.765822	258.953703	-0.128200	0.089281	0.235337	-0.555364	-0.546350	0.551036	-0.555364	1.765822	-5.564670	6614.000000	0.019245	-0.551036	-0.013300	0.053745	0.050704	0.087944	0.044140	
20160318.000000	112611.962587	-0.311699	-0.129408	1.444951	-5.575775	-1.815443	259.114267	-0.045349	0.133943	0.140267	-0.568515	-0.559235	0.551562	-0.568515	1.815443	-5.575775	6696.000000	0.022894	-0.551562	0.002769	0.085132	0.050728	0.087987	0.044140	
20160318.000000	112612.058733	-0.256398	-0.824883	1.280306	-5.628734	-1.864303	259.249410	-0.193587	0.076030	0.179216	-0.575391	-0.565839	0.552688	-0.575391	1.864303	-5.628734	6695.000000	0.016106	-0.552688	0.019122	0.118587	0.050693	0.088001	0.044140	
20160318.000000	112612.157970	-0.467044	-0.919005	1.043688	-5.717359	-1.912382	259.364983	-0.015462	0.053579	0.174890	-0.575477	-0.565655	0.553738	-0.575477	1.912382	-5.717359	6630.000000	0.019191	-0.553738	0.032469	0.134885	0.050763	0.088000	0.044140	
20160318.000000	112612.256888	-0.344149	-1.242587	0.562471	-5.833240	-1.961164	259.451617	-0.107245	0.049996	0.081894	-0.569890	-0.559798	0.554216	-0.569890	1.961164	-5.833240	6541.000000	0.018463	-0.554216	0.041266	0.127222	0.050735	0.087994	0.044140	
20160318.000000	112612.353216	-0.502355	-0.949043	0.282877	-5.963016	-2.008030	259.504100	0.025653	-0.170389	0.064780	-0.562240	-0.551885	0.551500	-0.562240	2.008030	-5.963016	6477.000000	0.016070	-0.551500	0.050523	0.125148	0.050476	0.088028	0.044141	
20160318.000000	112612.449543	-0.501422	-1.340780	0.227527	-6.087217	-2.055688	259.544972	0.086286	-0.220908	0.073061	-0.561037	-0.550381	0.547977	-0.561037	2.055688	-6.087217	6610.000000	0.019145	-0.547977	0.055224	0.106009	0.050627	0.088128	0.044141	
20160318.000000	112612.551819	-0.436705	-1.033177	0.420770	-6.194938	-2.095178	259.594676	0.015375	-0.137333	0.003752	-0.568171	-0.557206	0.545539	-0.568171	2.095178	-6.194938	6675.000000	0.016397	-0.545539	0.054879	0.077682	0.050523	0.088218	0.044142	
20160318.000000	112612.649446	0.026810	-0.944691	0.484854	-6.276480	-2.107277	259.644584	-0.077781	-0.060984	-0.059215	-0.573758	-0.562623	0.546761	-0.573758	2.107277	-6.276480	6638.000000	0.017623	-0.546761	0.049169	0.050969	0.050606	0.088284	0.044142	
20160318.000000	112612.748273	0.008352	-0.318822	0.670167	-6.324560	-2.111139	259.709716	-0.035618	-0.010166	-0.248068	-0.570578	-0.559398	0.550017	-0.570578	2.111139	-6.324560	6381.000000	0.021928	-0.550017	0.032130	-0.002619	0.050764	0.088308	0.044141	
20160318.000000	112612.844703	-0.140712	-0.174129	0.729135	-6.335743	-2.124067	259.783373	-0.143505	0.057851	0.018631	-0.550206	-0.539103	0.548981	-0.550206	2.124067	-6.335743	6450.000000	0.016155	-0.548981	0.021563	-0.031613	0.050737	0.088269	0.044141	
20160318.000000	112612.942324	-0.262063	0.102816	0.691445	-6.314366	-2.149356	259.863826	-0.015759	-0.034258	-0.133915	-0.550206	-0.539028	0.545042	-0.550206	2.149356	-6.314366	6732.000000	0.016328	-0.545042	0.017777	-0.040913	0.050743	0.088230	0.044141	
20160318.000000	112613.042049	-0.106995	0.434413	0.912804	-6.267998	-2.178775	259.945324	0.008278	-0.010616	-0.294512	-0.578658	-0.567225	0.547860	-0.578658	2.178775	-6.267998	6906.000000	0.016120	-0.547860	-0.003443	-0.085746	0.050749	0.088180	0.044141	
20160318.000000	112613.139376	-0.151866	0.813992	1.001521	-6.196130	-2.195994	260.032279	-0.211673	0.109368	-0.259847	-0.590348	-0.578849	0.557584	-0.590348	2.195994	-6.196130	6699.000000	0.016982	-0.557584	-0.026425	-0.113284	0.050727	0.088136	0.044140	
20160318.000000	112613.236878	-0.069708	0.808232	1.063148	-6.110083	-2.213293	260.137471	-0.080922	-0.067406	-0.068729	-0.575821	-0.564443	0.567621	-0.575821	2.213293	-6.110083	6437.000000	0.019481	-0.567621	-0.049032	-0.129375	0.050779	0.088118	0.044140	
20160318.000000	112613.336144	-0.228841	0.893838	1.094416	-6.008765	-2.227425	260.241693	-0.015048	-0.209138	0.025447	-0.561209	-0.549973	0.566180	-0.561209	2.227425	-6.008765	6560.000000	0.019320	-0.566180	-0.044046	-0.088981	0.050834	0.088085	0.044140	
20160318.000000	112613.436099	-0.367175	0.658434	0.947303	-5.907743	-2.256677	260.343005	-0.019400	-0.096705	0.165207	-0.561209	-0.549979	0.563223	-0.561209	2.239017	-5.958422	7150.000000	0.019158	-0.563223	-0.036004	-0.053220	0.050769	0.088057	0.044140	
20160318.000000	112613.534254	-0.162672	0.860681	1.520523	-5.815720	-2.297494	260.469309	-0.019658	-0.054365	0.029436	-0.588973	-0.577494	0.565344	-0.588973	2.297494	-5.815720	7610.000000	0.020068	-0.565344	-0.027149	-0.011071	0.050841	0.088045	0.044140	
20160318.000000	112613.631482	-0.139356	0.823269	1.862914	-5.776463	-2.311417	260.548354	-0.062408	-0.043929	0.131148	-0.637194	-0.625417	0.581330	-0.637194	2.311417	-5.776463	7707.000000	0.018261	-0.581330	-0.031854	0.012061	0.050825	0.088006	0.044140	
20160318.000000	112613.730680	0.159170	0.325406	2.228717	-5.692219	-2.338136	260.840133	-0.037965	-0.019518	0.143378	-0.658253	-0.646354	0.601548	-0.658253	2.328993	-5.714871	7541.000000	0.020138	-0.601548	-0.041988	0.018891	0.050817	0.087986	0.044140	
20160318.000000	112613.827115	0.015130	0.210825	2.518818	-5.677170	-2.348775	260.955509	-0.139037	0.001381	-0.009081	-0.658253	-0.646318	0.619499	-0.658253	2.348775	-5.677170	7392.000000	0.016897	-0.619499	-0.045945	0.031665	0.050733	0.087951	0.044140	
20160318.000000	112613.925403	0.280599	0.158502	2.700092	-5.658598	-2.370605	261.331675	-0.184979	-0.261116	-0.091549	-0.642695	-0.630794	0.627851	-0.642695	2.367372	-5.661148	7283.000000	0.019213	-0.627851	-0.051122	0.015488	0.050751	0.087950	0.044140	
20160318.000000	112614.023773	0.366080	-0.120146	2.369227	-5.660108	-2.376200	261.464829	-0.131611	0.043841	-0.211954	-0.627911	-0.616060	0.631737	-0.627911	2.376200	-5.660108	7214.000000	0.016090	-0.631737	-0.060386	-0.025663	0.050684	0.087944	0.044140	
20160318.000000	112614.124076	0.240112	-0.007269	2.791142	-5.659885	-2.378597	261.723270	-0.107718	0.055561	-0.129329	-0.626020	-0.614171	0.633075	-0.626020	2.378597	-5.659885	6951.000000	0.019481	-0.633075	-0.068565	-0.055642	0.050802	0.087961	0.044140	
20160318.000000	112614.221100	0.514287	0.079342	2.155300	-5.633975	-2.384380	262.081732	-0.069657	0.039479	-0.013648	-0.611149	-0.599376	0.629839	-0.611149	2.385281	-5.644336	6792.000000	0.019184	-0.629839	-0.064053	-0.047478	0.050672	0.087968	0.044140	
20160318.000000	112614.319221	0.888778	0.020549	2.022180	-5.616903	-2.373293	262.186350	0.038779	-0.017110	-0.573650	-0.583815	-0.572271	0.622851	-0.583815	2.373293	-5.616903	6568.000000	0.018036	-0.622851	-0.077204	-0.115255	0.050660	0.088025	0.044141	
20160318.000000	112614.416002	0.039039	-0.898563	1.130146	-5.572458	-2.316283	262.375819	-0.867362	0.272401	-0.060329	-0.565764	-0.554586	0.653640	-0.565764	2.316283	-5.572458	6599.000000	0.016806	-0.653640	-0.355128	-0.916253	0.050652	0.088045	0.044141	
20160318.000000	112614.516708	0.045510	-0.063542	1.559025	-5.522466	-2.312260	262.559989	-0.345645	0.017226	0.439988	-0.567226	-0.556102	0.641846	-0.567226	2.312260	-5.522466	6628.000000	0.022991	-0.641846	-0.330609	-0.637404	0.050727	0.088082	0.044141	
20160318.000000	112614.614157	0.023402	0.118359	1.955269	-5.486403	-2.330893	262.727697	-0.027230	-0.118494	0.554153	-0.567226	-0.556063	0.634007	-0.567226	2.330893	-5.486403	6597.000000	0.018741	-0.634007	-0.299950	-0.439650	0.050738	0.088076	0.044141	
20160318.000000	112614.711762	0.156572	0.887724	1.422630	-5.435701	-2.333668	262.870919	0.037717	-0.050854	-0.093836	-0.567054	-0.555928	0.631448	-0.567054	2.333668	-5.435701	6922.000000	0.019264	-0.631448	-0.293091	-0.363504	0.050749	0.088071	0.044140	
20160318.000000	112614.809408	-0.072645	0.699035	1.098600	-5.384831	-2.333573	262.987593	-0.128426	-0.047797	0.046412	-0.594990	-0.583765	0.631074	-0.594990	2.333573	-5.384831	7268.000000	0.016130	-0.631074	-0.266935	-0.233244	0.050791	0.088047	0.044140	
20160318.000000	112614.907658	0.165638	0.469093	1.058420	-5.343578	-2.336208	263.088160	-0.109156	-0.056523	-0.026390	-0.616908	-0.605600	0.638560	-0.616908	2.336208	-5.343578	7177.000000	0.016146	-0.638560	-0.253606	-0.164103	0.050772	0.087993	0.044140	
20160318.000000	112615.007454	0.520533	0.066918	0.642912	-5.334908	-2.307954	263.173135	-0.030626	-0.200064	0.066647	-0.616908	-0.605719	0.646217	-0.616908	2.307954	-5.334908	6825.000000	0.018457	-0.646217	-0.239616	-0.108803	0.050853	0.087969	0.044140	
20160318.000000	112615.103679	0.410497	-0.329945	0.272907	-5.356418	-2.244644	263.224293	-0.075484	-0.247008	0.181765	-0.586652	-0.575843	0.644839	-0.586652	2.244644	-5.356418	6707.000000	0.016211	-0.644839	-0.215217	-0.059428	0.050820	0.087935	0.044140	
20160318.000000	112615.204155	0.122319	-0.532781	-0.012103	-5.405284	-2.194564	263.243137	-0.069058	-0.233068	0.110352	-0.576595	-0.565985	0.636805	-0.576595	2.194564	-5.405284	6747.000000	0.016710	-0.636805	-0.188802	-0.024467	0.050767	0.087895	0.044140	
20160318.000000	112615.300359	0.261865	-0.559808	0.029105	-5.474834	-2.156368	263.250459	-0.086350	-0.048951	-0.224456	-0.576595	-0.566067	0.631230	-0.576595	2.156368	-5.474834	6632.000000	0.017945	-0.631230	-0.176306	-0.036206	0.050824	0.087884	0.044140	
20160318.000000	112615.399343	0.171905	-0.663282	0.053265	-5.547948	-2.114877	263.253745	-0.153045	-0.181045	0.025259	-0.570062	-0.559659	0.624253	-0.570062	2.114877	-5.547948	6423.000000	0.017509	-0.624253	-0.163329	-0.044320	0.050782	0.087876	0.044140	
20160318.000000	112615.497786	-0.167956	-0.620284	0.102720	-5.623821	-2.101189	263.260267	-0.080956	-0.123731	-0.039875	-0.552097	-0.541773	0.614545	-0.552097	2.101189	-5.623821	6262.000000	0.018219	-0.614545	-0.145552	-0.035420	0.050800	0.087873	0.044140	
20160318.000000	112615.595368	-0.145057	-0.268268	-0.013063	-5.679944	-2.114292	263.272849	0.116271	-0.039488	-0.028005	-0.542728	-0.532353	0.600352	-0.542728	2.114292	-5.679944	6370.000000	0.016123	-0.600352	-0.127882	-0.039818	0.050711	0.087876	0.044140	
20160318.000000	112615.695458	-0.011145	-0.960760	0.004808	-5.725612	-2.120073	263.277780	0.113181	-0.070854	-0.244375	-0.547542	-0.537075	0.591552	-0.547542	2.120073	-5.725612	6544.000000	0.019409	-0.591552	-0.118193	-0.050217	0.050888	0.087867	0.044140	
20160318.000000	112615.793653	0.223381	0.180808	0.046790	-5.751145	-2.095279	263.273586	0.095505	-0.095700	-0.115449	-0.562498	-0.552017	0.588190	-0.562498	2.095279	-5.751145	6790.000000	0.018571	-0.588190	-0.123947	-0.090128	0.050756	0.087835	0.044140	
20160318.000000	112615.891652	0.090826	-0.166953	-0.181812	-5.757566	-2.060103	263.258150	-0.103881	-0.192860	-0.220926	-0.583643	-0.573170	0.591178	-0.583643	2.060103	-5.757566	6885.000000	0.016098	-0.591178	-0.129065	-0.102734	0.050796	0.087817	0.044140	
20160318.000000	112615.987889	0.035027	0.360559	-0.139736	-5.749661	-2.041756	263.238411	-0.171532	-0.199714	-0.128237	-0.589488	-0.579061	0.598624	-0.589488	2.041756	-5.749661	6660.000000	0.019441	-0.598624	-0.140815	-0.122433	0.050843	0.087806	0.044140	
20160318.000000	112616.086942	0.118103	0.419775	-0.281234	-5.735107	-2.015894	263.209512	-0.052985	-0.166956	-0.069703	-0.584159	-0.573814	0.601801	-0.584159	2.030067	-5.741793	6381.000000	0.019465	-0.601801	-0.138634	-0.102957	0.050760	0.087805	0.044140	
20160318.000000	112616.184762	0.133281	0.365103	-0.459788	-5.729816	-1.986933	263.174282	-0.048296	-0.145026	0.307464	-0.548487	-0.538519	0.595211	-0.548487	1.986933	-5.729816	6170.000000	0.020674	-0.595211	-0.120289	-0.059007	0.050799	0.087826	0.044140	
20160318.000000	112616.284824	-0.043288	0.006347	-0.312600	-5.739770	-1.972310	263.143382	-0.072102	-0.253699	0.078372	-0.538516	-0.528633	0.583590	-0.538516	1.978905	-5.731501	6037.000000	0.016117	-0.583590	-0.094606	-0.015038	0.050717	0.087803	0.044140	
20160318.000000	112616.381610	-0.138616	-0.311534	-0.399941	-5.775687	-1.961541	263.105229	-0.144881	-0.165341	0.219544	-0.524505	-0.514724	0.570548	-0.524505	1.966970	-5.755537	6069.000000	0.019418	-0.570548	-0.073464	0.003905	0.050823	0.087817	0.044140	
20160318.000000	112616.478809	-0.035645	-0.638336	-0.492431	-5.801521	-1.956310	263.081596	-0.056839	-0.112172	0.219778	-0.518918	-0.509167	0.552888	-0.518918	1.956310	-5.801521	6320.000000	0.016768	-0.552888	-0.036178	0.061433	0.050711	0.087816	0.044140	
20160318.000000	112616.577768	-0.510832	-0.913427	-0.710714	-5.913907	-1.973699	263.003439	-0.037282	-0.144823	0.137641	-0.531468	-0.521571	0.543232	-0.531468	1.958500	-5.871674	6698.000000	0.020542	-0.543232	-0.008990	0.100423	0.050766	0.087849	0.044140	
20160318.000000	112616.677572	-0.299750	-0.901983	-0.665635	-5.954367	-1.990802	262.972614	-0.026439	-0.075581	-0.098252	-0.557255	-0.547003	0.543725	-0.557255	1.990802	-5.954367	6911.000000	0.019353	-0.543725	-0.004550	0.077131	0.050771	0.087876	0.044140	
20160318.000000	112616.774788	-0.282672	-0.446467	-0.773878	-6.038529	-2.021546	262.862928	-0.033638	-0.224330	-0.235974	-0.587167	-0.576589	0.555108	-0.587167	2.012341	-6.016405	6945.000000	0.019260	-0.555108	-0.023411	0.019029	0.050755	0.087876	0.044140	
20160318.000000	112616.874203	-0.290338	-0.073521	-0.653353	-6.054208	-2.031970	262.831311	-0.090022	-0.179396	-0.465436	-0.594044	-0.583307	0.568839	-0.594044	2.031970	-6.054208	6648.000000	0.015653	-0.568839	-0.053361	-0.059132	0.050685	0.087878	0.044140	
20160318.000000	112616.970558	-0.473719	0.090337	-0.352523	-6.053814	-2.062779	262.783855	-0.021342	-0.225733	-0.348176	-0.582870	-0.572085	0.580865	-0.582870	2.062779	-6.053814	6522.000000	0.016091	-0.580865	-0.088836	-0.139575	0.050696	0.087894	0.044140	
20160318.000000	112617.070465	-0.501974	0.390749	-0.245125	-6.024241	-2.103186	262.756179	-0.036340	-0.092647	-0.254970	-0.560607	-0.549836	0.582027	-0.560607	2.103186	-6.024241	6571.000000	0.019201	-0.582027	-0.103251	-0.164981	0.050680	0.087955	0.044140	
20160318.000000	112617.168163	-0.588042	0.061227	-0.064639	-5.973865	-2.143033	262.741549	-0.014694	-0.115357	-0.156127	-0.560607	-0.549734	0.581319	-0.560607	2.143033	-5.973865	6699.000000	0.016198	-0.581319	-0.114670	-0.175066	0.050652	0.087987	0.044140	
20160318.000000	112617.265212	-0.624431	0.045735	-0.046008	-5.919082	-2.184869	262.738052	-0.138219	-0.210468	0.057321	-0.575821	-0.564751	0.581237	-0.575821	2.184869	-5.919082	7113.000000	0.016098	-0.581237	-0.107793	-0.127105	0.050579	0.088065	0.044141	
20160318.000000	112617.365137	-0.565894	0.383695	-0.150452	-5.860387	-2.237610	262.733749	-0.019933	-0.191906	0.068967	-0.611407	-0.599980	0.588423	-0.611407	2.237610	-5.860387	7241.000000	0.019216	-0.588423	-0.099259	-0.067395	0.050695	0.088118	0.044141	
20160318.000000	112617.463088	-0.867012	0.501728	-0.195840	-5.812339	-2.298516	262.721099	-0.014672	-0.247460	0.222515	-0.622410	-0.610732	0.601076	-0.622410	2.298516	-5.812339	7232.000000	0.016160	-0.601076	-0.090545	-0.009151	0.050572	0.088166	0.044141	
20160318.000000	112617.561340	-1.019441	-0.098937	-0.020614	-5.788736	-2.376663	262.709495	-0.047229	-0.219902	0.266772	-0.621636	-0.609683	0.607514	-0.621636	2.376663	-5.788736	7014.000000	0.018747	-0.607514	-0.072008	0.051668	0.050659	0.088202	0.044141	
20160318.000000	112617.656995	-1.076815	0.068096	0.008895	-5.790597	-2.472573	262.707726	-0.033279	-0.234004	0.088457	-0.602897	-0.590678	0.608945	-0.602897	2.472573	-5.790597	6757.000000	0.022334	-0.608945	-0.052001	0.082304	0.050694	0.088226	0.044141	
20160318.000000	112617.755398	-1.115196	-0.317885	0.232463	-5.815163	-2.567964	262.711236	-0.116052	-0.132078	0.004001	-0.580807	-0.568323	0.603489	-0.580807	2.567964	-5.815163	6462.000000	0.019338	-0.603489	-0.037460	0.079359	0.050756	0.088220	0.044141	
20160318.000000	112617.856499	-0.840078	-0.589080	0.000807	-5.854988	-2.652420	262.709112	-0.050292	-0.177952	-0.060004	-0.555450	-0.542753	0.592293	-0.555450	2.652420	-5.854988	6273.000000	0.019130	-0.592293	-0.024328	0.062970	0.050688	0.088239	0.044141	
20160318.000000	112617.951607	-0.686051	-1.007599	0.036958	-5.902540	-2.721454	262.708777	-0.029671	-0.216243	-0.045341	-0.544017	-0.531077	0.576799	-0.544017	2.721454	-5.902540	6397.000000	0.018156	-0.576799	-0.015661	0.024692	0.050691	0.088251	0.044141	
20160318.000000	112618.050426	-0.306322	-0.282261	0.546686	-5.951311	-2.772467	262.734090	-0.128818	-0.128654	-0.219978	-0.549862	-0.536637	0.567502	-0.549862	2.772467	-5.951311	6413.000000	0.019460	-0.567502	-0.019776	-0.025272	0.050867	0.088216	0.044141	
20160318.000000	112618.147962	0.003048	-0.577826	0.677853	-5.996674	-2.788412	262.794045	-0.156652	-0.080408	-0.196520	-0.549862	-0.536530	0.561438	-0.549862	2.788412	-5.996674	6192.000000	0.019270	-0.561438	-0.023833	-0.051662	0.050844	0.088161	0.044140	
20160318.000000	112618.246170	0.205189	-0.027135	0.891537	-6.028943	-2.780154	262.856268	-0.069304	-0.008662	-0.148335	-0.532241	-0.519027	0.554665	-0.532241	2.780154	-6.028943	6088.000000	0.019846	-0.554665	-0.028769	-0.073373	0.050790	0.088115	0.044140	
20160318.000000	112618.345447	0.233135	-0.051474	0.504618	-6.042760	-2.773203	262.928149	-0.071384	-0.003729	-0.055511	-0.528201	-0.515029	0.545623	-0.528201	2.773203	-6.042760	6231.000000	0.016782	-0.545623	-0.024144	-0.065753	0.050820	0.088050	0.044140	
20160318.000000	112618.445457	0.405923	0.056964	0.666730	-6.039707	-2.756832	263.005788	-0.057858	-0.041831	-0.016036	-0.528201	-0.515054	0.538108	-0.528201	2.767042	-6.041606	6632.000000	0.019195	-0.538108	-0.018564	-0.051980	0.050866	0.088005	0.044140	
20160318.000000	112618.540920	0.461306	0.281266	0.845160	-6.025972	-2.719285	263.093085	-0.081701	0.021602	-0.003753	-0.570062	-0.556838	0.538138	-0.570062	2.719285	-6.025972	6735.000000	0.017854	-0.538138	-0.017666	-0.035755	0.050821	0.087965	0.044140	
20160318.000000	112618.641655	0.430077	0.203926	1.209846	-6.005402	-2.686674	263.200039	-0.118643	-0.017781	0.102754	-0.575477	-0.562301	0.544797	-0.575477	2.700568	-6.016124	6600.000000	0.019378	-0.544797	-0.017292	-0.010054	0.050906	0.087929	0.044140	
20160318.000000	112618.738135	0.289946	0.234690	1.127719	-5.983612	-2.658531	263.317627	-0.086245	-0.097361	0.088912	-0.575477	-0.562426	0.549389	-0.575477	2.674282	-5.995360	6454.000000	0.019480	-0.549389	-0.009854	0.026022	0.050830	0.087885	0.044140	
20160318.000000	112618.838197	0.336461	0.152395	1.155856	-5.960193	-2.618946	263.429704	-0.095340	-0.160388	0.117078	-0.559919	-0.547132	0.548924	-0.559919	2.638856	-5.971911	6533.000000	0.019317	-0.548924	0.003063	0.056289	0.050823	0.087876	0.044140	
20160318.000000	112618.934724	0.466823	0.020250	1.094944	-5.941697	-2.569819	263.532765	-0.053168	-0.217602	-0.001371	-0.557942	-0.545354	0.547691	-0.557942	2.596420	-5.951462	6435.000000	0.019477	-0.547691	0.009169	0.057259	0.050772	0.087874	0.044140	
20160318.000000	112619.034236	0.551470	0.432702	0.966316	-5.934119	-2.538939	263.583451	-0.104943	-0.247034	-0.024024	-0.555106	-0.542777	0.546344	-0.555106	2.538939	-5.934119	6453.000000	0.016229	-0.546344	0.009758	0.038479	0.050744	0.087867	0.044140	
20160318.000000	112619.132804	0.623098	-0.236756	0.892931	-5.919435	-2.465320	263.743428	-0.175388	-0.106909	-0.247754	-0.554676	-0.542555	0.546210	-0.554676	2.488787	-5.924155	6711.000000	0.016872	-0.546210	0.001922	0.003033	0.050751	0.087870	0.044140	
20160318.000000	112619.230999	0.642691	-0.075846	1.021117	-5.919748	-2.440114	263.797523	-0.165926	-0.188184	-0.067572	-0.560693	-0.548728	0.547680	-0.560693	2.440114	-5.919748	6882.000000	0.019642	-0.547680	-0.009993	-0.032429	0.050770	0.087885	0.044140	
20160318.000000	112619.326451	0.123537	-0.017637	0.904447	-5.942878	-2.382391	263.947091	-0.070468	0.037866	-0.108011	-0.586222	-0.574268	0.555935	-0.586222	2.394082	-5.928318	6908.000000	0.019404	-0.555935	-0.021517	-0.040734	0.050755	0.087892	0.044140	
20160318.000000	112619.426324	0.159936	-0.562355	0.938616	-5.975524	-2.375566	264.043588	-0.022148	-0.018126	-0.033051	-0.591981	-0.580027	0.565037	-0.591981	2.376929	-5.958130	7042.000000	0.019283	-0.565037	-0.032683	-0.047190	0.050827	0.087885	0.044140	
20160318.000000	112619.525706	0.078857	-0.680219	0.871650	-6.000699	-2.369480	264.091747	-0.037553	-0.122107	0.022655	-0.599545	-0.587527	0.572684	-0.599545	2.369480	-6.000699	7117.000000	0.019185	-0.572684	-0.037999	-0.038822	0.050754	0.087879	0.044140	
20160318.000000	112619.624078	-0.244867	-0.579872	1.019671	-6.095755	-2.374237	264.236281	-0.082662	-0.087591	0.078394	-0.611751	-0.599611	0.582915	-0.611751	2.364135	-6.060116	7232.000000	0.021345	-0.582915	-0.041827	-0.022734	0.050827	0.087891	0.044140	
20160318.000000	112619.720321	-0.123059	-0.620181	1.090647	-6.131907	-2.393220	264.288771	-0.136621	-0.075880	0.116101	-0.621636	-0.609237	0.591453	-0.621636	2.393220	-6.131907	7146.000000	0.020258	-0.591453	-0.039413	0.004601	0.050768	0.087894	0.044140	
20160318.000000	112619.816989	0.070327	-0.448496	1.249007	-6.234590	-2.430395	264.462893	-0.045655	-0.046196	-0.094977	-0.616994	-0.604431	0.599158	-0.616994	2.422894	-6.200432	7128.000000	0.016111	-0.599158	-0.035004	0.025665	0.050774	0.087900	0.044140	
20160318.000000	112619.917922	-0.003638	-0.707629	1.539413	-6.267256	-2.432719	264.535614	-0.022663	-0.141634	0.025441	-0.612697	-0.600047	0.602860	-0.612697	2.432719	-6.267256	7179.000000	0.020182	-0.602860	-0.036227	0.015558	0.050875	0.087892	0.044140	
20160318.000000	112620.016647	-0.058821	-0.587223	1.747584	-6.335495	-2.441170	264.699778	-0.030578	-0.181605	-0.051486	-0.612697	-0.599935	0.605900	-0.612697	2.441170	-6.335495	7241.000000	0.019313	-0.605900	-0.042103	-0.008713	0.050776	0.087866	0.044140	
20160318.000000	112620.115072	0.262017	-0.421908	1.763175	-6.394355	-2.450970	264.872902	-0.496503	-0.331677	-0.374791	-0.622410	-0.609472	0.612050	-0.622410	2.450970	-6.394355	7213.000000	0.016107	-0.612050	-0.058792	-0.059201	0.050808	0.087854	0.044140	
20160318.000000	112620.213573	0.081842	-0.343958	1.693608	-6.437504	-2.461728	265.051874	0.026772	-0.144832	-0.031997	-0.622410	-0.609378	0.616267	-0.622410	2.461728	-6.437504	7064.000000	0.019218	-0.616267	-0.065855	-0.067781	0.050726	0.087839	0.044140	
20160318.000000	112620.310509	0.104484	-0.327360	1.185768	-6.460102	-2.470318	265.205983	0.024673	-0.231727	0.025682	-0.607195	-0.594214	0.619180	-0.607195	2.470318	-6.460102	6731.000000	0.019522	-0.619180	-0.076266	-0.088745	0.050702	0.087868	0.044140	
20160318.000000	112620.410026	0.057518	0.195617	0.863149	-6.463970	-2.477027	265.307958	-0.024909	-0.077636	-0.096478	-0.578572	-0.565768	0.613668	-0.578572	2.477027	-6.463970	6667.000000	0.019543	-0.613668	-0.078020	-0.098868	0.050715	0.087906	0.044140	
20160318.000000	112620.507851	-0.095008	0.367341	0.470072	-6.439893	-2.481725	265.374860	-0.071362	-0.052969	-0.113789	-0.573071	-0.560315	0.604380	-0.573071	2.481725	-6.439893	6785.000000	0.016049	-0.604380	-0.072938	-0.095156	0.050685	0.087904	0.044140	
20160318.000000	112620.606019	-0.009697	0.775780	0.443669	-6.397930	-2.491957	265.424481	-0.078885	0.028652	-0.046853	-0.583213	-0.570391	0.598119	-0.583213	2.491957	-6.397930	6805.000000	0.019365	-0.598119	-0.075363	-0.104513	0.050781	0.087917	0.044140	
20160318.000000	112620.702657	0.157255	0.775392	0.477653	-6.335651	-2.496370	265.479826	-0.167054	-0.101477	-0.274689	-0.584933	-0.572150	0.597867	-0.584933	2.496370	-6.335651	6676.000000	0.017402	-0.597867	-0.087274	-0.132419	0.050750	0.087923	0.044140	
20160318.000000	112620.802520	0.188228	0.611004	0.695595	-6.260673	-2.492333	265.545457	-0.078063	-0.202200	-0.107800	-0.577970	-0.565334	0.598193	-0.577970	2.492333	-6.260673	6577.000000	0.016025	-0.598193	-0.105672	-0.174590	0.050687	0.087924	0.044140	
20160318.000000	112620.900627	-0.364233	0.655768	0.519394	-6.200516	-2.495444	265.595591	-0.125818	-0.011298	-0.091434	-0.569117	-0.556594	0.594028	-0.569117	2.495444	-6.200516	6641.000000	0.016373	-0.594028	-0.108005	-0.160525	0.050761	0.087934	0.044140	
20160318.000000	112620.997733	-0.321250	0.328177	0.283547	-6.161568	-2.526716	265.629489	-0.085406	-0.042284	0.052556	-0.570836	-0.558220	0.590301	-0.570836	2.526716	-6.161568	6782.000000	0.016143	-0.590301	-0.102700	-0.129259	0.050742	0.087912	0.044140	
20160318.000000	112621.097569	-0.419984	0.059434	-0.181356	-6.152570	-2.561316	265.625193	-0.070723	-0.188794	-0.053604	-0.582956	-0.570133	0.588677	-0.582956	2.561316	-6.152570	6970.000000	0.019557	-0.588677	-0.092455	-0.084632	0.050817	0.087914	0.044140	
20160318.000000	112621.195207	0.036708	-0.360810	-0.702716	-6.167581	-2.555525	265.576350	-0.052953	-0.308663	0.190301	-0.599115	-0.586189	0.590745	-0.599115	2.555525	-6.167581	7126.000000	0.016268	-0.590745	-0.082538	-0.040894	0.050720	0.087907	0.044140	
20160318.000000	112621.291406	0.289973	-0.473487	-0.932756	-6.214808	-2.519777	265.497400	-0.112463	-0.346832	0.302716	-0.612525	-0.599595	0.594384	-0.612525	2.519777	-6.214808	7266.000000	0.016497	-0.594384	-0.063463	0.025694	0.050768	0.087887	0.044140	
20160318.000000	112621.392164	0.272237	-0.534614	-1.023949	-6.278625	-2.469789	265.394428	0.004753	-0.298293	0.395457	-0.624043	-0.611157	0.598705	-0.624043	2.469789	-6.278625	7163.000000	0.016597	-0.598705	-0.041140	0.089901	0.050743	0.087866	0.044140	
20160318.000000	112621.488525	0.430521	-0.874955	-1.185061	-6.349069	-2.413579	265.282393	0.004729	-0.224648	0.040493	-0.615705	-0.603015	0.603254	-0.615705	2.413579	-6.349069	6961.000000	0.016173	-0.603254	-0.018654	0.130408	0.050732	0.087859	0.044140	
20160318.000000	112621.585945	0.468473	-0.653449	-1.464264	-6.421439	-2.336319	265.152148	-0.005119	-0.265105	0.037704	-0.598342	-0.585992	0.603314	-0.598342	2.336319	-6.421439	6908.000000	0.016581	-0.603314	-0.014431	0.101678	0.050705	0.087861	0.044140	
20160318.000000	112621.686359	0.709433	-0.567394	-1.430338	-6.479741	-2.237760	265.012382	-0.018722	-0.244419	-0.124734	-0.593786	-0.581784	0.599499	-0.593786	2.237760	-6.479741	6924.000000	0.016154	-0.599499	-0.013375	0.055248	0.050701	0.087874	0.044140	
20160318.000000	112621.784257	0.373199	-0.151123	-1.271480	-6.517857	-2.154223	264.878086	-0.025598	-0.252823	-0.121757	-0.593786	-0.582062	0.597648	-0.593786	2.154223	-6.517857	6889.000000	0.016940	-0.597648	-0.020271	0.007576	0.050722	0.087877	0.044140	
20160318.000000	112621.883045	0.219658	-0.009022	-1.634766	-6.537318	-2.092020	264.733505	0.049374	-0.249292	-0.062747	-0.592411	-0.580803	0.595838	-0.592411	2.122999	-6.529616	6974.000000	0.019177	-0.595838	-0.025132	-0.020410	0.050752	0.087891	0.044140	
20160318.000000	112621.981273	0.033153	-0.026787	-1.910482	-6.540082	-2.037706	264.562600	0.096430	-0.274593	0.020488	-0.599459	-0.588116	0.594460	-0.599459	2.037706	-6.540082	7002.000000	0.017066	-0.594460	-0.026871	-0.028801	0.050703	0.087900	0.044140	
20160318.000000	112622.078368	-0.154951	0.065115	-1.721196	-6.538966	-2.012293	264.472278	0.102775	-0.265499	-0.031681	-0.601006	-0.589751	0.595135	-0.601006	2.012293	-6.538966	6906.000000	0.019440	-0.595135	-0.028231	-0.029697	0.050829	0.087907	0.044140	
20160318.000000	112622.177672	-0.361718	0.113744	-1.407324	-6.529786	-1.984413	264.210251	0.096452	-0.175919	0.016251	-0.598686	-0.587564	0.594490	-0.598686	1.983916	-6.531933	7033.000000	0.017491	-0.594490	-0.022650	-0.010966	0.050744	0.087890	0.044140	
20160318.000000	112622.274614	-0.704577	-0.044772	-1.381816	-6.528945	-1.997038	264.136328	0.077491	-0.159368	0.021433	-0.596709	-0.585554	0.593298	-0.596709	1.997038	-6.528945	7223.000000	0.019348	-0.593298	-0.019866	-0.007161	0.050769	0.087894	0.044140	
20160318.000000	112622.370795	-0.664856	0.106398	-1.620033	-6.537187	-2.050407	263.926880	0.089072	-0.189507	0.021526	-0.612353	-0.600941	0.596680	-0.612353	2.033585	-6.534253	7302.000000	0.016081	-0.596680	-0.027295	-0.026312	0.050702	0.087891	0.044140	
20160318.000000	112622.472835	-0.810348	-0.171345	-1.873031	-6.541847	-2.064282	263.845574	0.037324	-0.171876	-0.066355	-0.627653	-0.616004	0.604880	-0.627653	2.064282	-6.541847	7228.000000	0.016035	-0.604880	-0.034829	-0.029722	0.050775	0.087905	0.044140	
20160318.000000	112622.571012	-0.930131	-0.105409	-1.832413	-6.551830	-2.104055	263.672763	0.055094	-0.207162	-0.026976	-0.625332	-0.613534	0.610399	-0.625332	2.104055	-6.551830	7177.000000	0.019302	-0.610399	-0.038570	-0.027857	0.050787	0.087888	0.044140	
20160318.000000	112622.669036	-0.938325	0.007435	-1.871497	-6.543523	-2.153905	263.489803	0.062408	-0.407375	-0.027459	-0.616908	-0.604989	0.613016	-0.616908	2.153905	-6.543523	7102.000000	0.019186	-0.613016	-0.042868	-0.036216	0.050805	0.087887	0.044140	
20160318.000000	112622.768374	-0.767338	0.375212	-1.968377	-6.522489	-2.190942	263.289050	0.030132	-0.298251	-0.034945	-0.610891	-0.598897	0.613994	-0.610891	2.190942	-6.522489	8507.000000	0.019242	-0.613994	-0.050469	-0.056557	0.050788	0.087894	0.044140	
20160318.000000	112622.865319	-0.613881	0.571132	-2.230675	-6.485137	-2.219318	263.081713	-0.026500	-0.203255	-0.013680	-0.708108	-0.695354	0.626050	-0.708108	2.219318	-6.485137	8238.000000	0.019316	-0.626050	-0.062831	-0.060691	0.050849	0.087886	0.044140	
